nombre,lat,lng,direccion,categoria,capa,mapa,lista
Yogurtissimo,40.8508556,17.1206925,,OpcionesCERT,CERTIFICADOS / CERTIFIED,GF Social ESP/ITA/POR,GF Social ESP/ITA/POR
"Bar Gelateria ""Dolci Voglie""",40.8489211,17.1194727,,OpcionesCERT,CERTIFICADOS / CERTIFIED,GF Social ESP/ITA/POR,GF Social ESP/ITA/POR
Caffè Verdi Di Cassone Natale,40.8496859,17.1301719,,OpcionesCERT,CERTIFICADOS / CERTIFIED,GF Social ESP/ITA/POR,GF Social ESP/ITA/POR
Zinnannà,41.1556362,16.4127204,,OpcionesCERT,CERTIFICADOS / CERTIFIED,GF Social ESP/ITA/POR,GF Social ESP/ITA/POR
YOYÒ Corato,41.1526867,16.411458,,OpcionesCERT,CERTIFICADOS / CERTIFIED,GF Social ESP/ITA/POR,GF Social ESP/ITA/POR
Pizzeria Il Chiodo Fisso - Corato,41.1536317,16.4107915,,OpcionesCERT,CERTIFICADOS / CERTIFIED,GF Social ESP/ITA/POR,GF Social ESP/ITA/POR
Crema e Cioccolato di Nocca Cataldo,41.1536475,16.4096674,,OpcionesCERT,CERTIFICADOS / CERTIFIED,GF Social ESP/ITA/POR,GF Social ESP/ITA/POR
Green Elf,40.7898618,16.758578,,OpcionesCERT,CERTIFICADOS / CERTIFIED,GF Social ESP/ITA/POR,GF Social ESP/ITA/POR
Ghenos Risto Pub Pizzeria Corato,41.1578077,16.4086241,,OpcionesCERT,CERTIFICADOS / CERTIFIED,GF Social ESP/ITA/POR,GF Social ESP/ITA/POR
Francesco Urbano Chocol-Atelier,40.9554681,17.2893983,,OpcionesCERT,CERTIFICADOS / CERTIFIED,GF Social ESP/ITA/POR,GF Social ESP/ITA/POR
La Galleria,41.2702407,16.426170600000003,,OpcionesCERT,CERTIFICADOS / CERTIFIED,GF Social ESP/ITA/POR,GF Social ESP/ITA/POR
Dante's Caffetteria Breakfast Only,40.9497431,17.2919681,,OpcionesCERT,CERTIFICADOS / CERTIFIED,GF Social ESP/ITA/POR,GF Social ESP/ITA/POR
Il Melograno,41.2758333,16.42,,OpcionesCERT,CERTIFICADOS / CERTIFIED,GF Social ESP/ITA/POR,GF Social ESP/ITA/POR
Pizzeria - Bar la Frasca,40.6465785,15.8276013,,OpcionesCERT,CERTIFICADOS / CERTIFIED,GF Social ESP/ITA/POR,GF Social ESP/ITA/POR
Pizzeria Il Gazebo,40.5961551,15.7579635,,OpcionesCERT,CERTIFICADOS / CERTIFIED,GF Social ESP/ITA/POR,GF Social ESP/ITA/POR
Girotondo,40.66652699999999,16.6040101,,OpcionesCERT,CERTIFICADOS / CERTIFIED,GF Social ESP/ITA/POR,GF Social ESP/ITA/POR
Al Vecchio Crapo,40.8166809,16.4125976,,OpcionesCERT,CERTIFICADOS / CERTIFIED,GF Social ESP/ITA/POR,GF Social ESP/ITA/POR
La Lanterna Pizzeria,40.816566,16.4157415,,OpcionesCERT,CERTIFICADOS / CERTIFIED,GF Social ESP/ITA/POR,GF Social ESP/ITA/POR
Gelateria Cenzino,40.82384340000001,16.5573862,,OpcionesCERT,CERTIFICADOS / CERTIFIED,GF Social ESP/ITA/POR,GF Social ESP/ITA/POR
Tre Archi,40.8264895,16.5539306,,OpcionesCERT,CERTIFICADOS / CERTIFIED,GF Social ESP/ITA/POR,GF Social ESP/ITA/POR
La Pescarella Ristorante Ginosa,40.5911598,16.7495193,,OpcionesCERT,CERTIFICADOS / CERTIFIED,GF Social ESP/ITA/POR,GF Social ESP/ITA/POR
La Pietra Azzurra - Vallo di Diano,40.3596914,15.6202382,,OpcionesCERT,CERTIFICADOS / CERTIFIED,GF Social ESP/ITA/POR,GF Social ESP/ITA/POR
Biffy - Ristorante - Pizzeria,40.58083059999999,16.7503593,,OpcionesCERT,CERTIFICADOS / CERTIFIED,GF Social ESP/ITA/POR,GF Social ESP/ITA/POR
Locanda San Cipriano,40.4492895,15.549855500000001,,OpcionesCERT,CERTIFICADOS / CERTIFIED,GF Social ESP/ITA/POR,GF Social ESP/ITA/POR
Lo Sceriffo,40.1807221,15.5394968,,OpcionesCERT,CERTIFICADOS / CERTIFIED,GF Social ESP/ITA/POR,GF Social ESP/ITA/POR
La Pietra Azzurra - Cilento,40.173746,15.541145000000002,,OpcionesCERT,CERTIFICADOS / CERTIFIED,GF Social ESP/ITA/POR,GF Social ESP/ITA/POR
Ristorante Lucifero,40.07489590000001,15.6294807,,OpcionesCERT,CERTIFICADOS / CERTIFIED,GF Social ESP/ITA/POR,GF Social ESP/ITA/POR
Il Focolare Ristorante - Pizzeria,41.08136059999999,16.0823328,,OpcionesCERT,CERTIFICADOS / CERTIFIED,GF Social ESP/ITA/POR,GF Social ESP/ITA/POR
Locanda al Giglio d' Oro,40.8432808,15.533539800000002,,OpcionesCERT,CERTIFICADOS / CERTIFIED,GF Social ESP/ITA/POR,GF Social ESP/ITA/POR
Osteria La Tradizione,41.0870884,16.0788473,,OpcionesCERT,CERTIFICADOS / CERTIFIED,GF Social ESP/ITA/POR,GF Social ESP/ITA/POR
Agriturismo Sei Carri,41.0818065,16.2506815,,OpcionesCERT,CERTIFICADOS / CERTIFIED,GF Social ESP/ITA/POR,GF Social ESP/ITA/POR
Ristorante Pizzeria Sant'Antonio,40.339507,15.3393069,,OpcionesCERT,CERTIFICADOS / CERTIFIED,GF Social ESP/ITA/POR,GF Social ESP/ITA/POR
Bar Mincuccio,40.57949069999999,17.0370586,,OpcionesCERT,CERTIFICADOS / CERTIFIED,GF Social ESP/ITA/POR,GF Social ESP/ITA/POR
Pizza Taxi,40.632918,17.0345199,,OpcionesCERT,CERTIFICADOS / CERTIFIED,GF Social ESP/ITA/POR,GF Social ESP/ITA/POR
Escopocodisera,39.89591799999999,15.779462900000002,,OpcionesCERT,CERTIFICADOS / CERTIFIED,GF Social ESP/ITA/POR,GF Social ESP/ITA/POR
Pizzeria OK,40.6384325,17.0392761,,OpcionesCERT,CERTIFICADOS / CERTIFIED,GF Social ESP/ITA/POR,GF Social ESP/ITA/POR
Ali Hassou Pizzeria,41.1551002,16.411296,,OpcionesCERT,CERTIFICADOS / CERTIFIED,GF Social ESP/ITA/POR,GF Social ESP/ITA/POR
Ristorante Bar Furano,39.8528292,15.791626600000003,,OpcionesCERT,CERTIFICADOS / CERTIFIED,GF Social ESP/ITA/POR,GF Social ESP/ITA/POR
L'orsa maggiore,40.58664780000001,17.114869,,OpcionesCERT,CERTIFICADOS / CERTIFIED,GF Social ESP/ITA/POR,GF Social ESP/ITA/POR
Twins,41.21447069999999,16.0570154,,OpcionesCERT,CERTIFICADOS / CERTIFIED,GF Social ESP/ITA/POR,GF Social ESP/ITA/POR
THAT'S AMORE Pizzeria TAKE AWAY,41.2206985,16.0684198,,OpcionesCERT,CERTIFICADOS / CERTIFIED,GF Social ESP/ITA/POR,GF Social ESP/ITA/POR
iRegano,41.22757780000001,16.2991018,,OpcionesCERT,CERTIFICADOS / CERTIFIED,GF Social ESP/ITA/POR,GF Social ESP/ITA/POR
Imperiale,41.2310091,16.2950963,,OpcionesCERT,CERTIFICADOS / CERTIFIED,GF Social ESP/ITA/POR,GF Social ESP/ITA/POR
Sapore Dei Tempi,41.233146,16.3043907,,OpcionesCERT,CERTIFICADOS / CERTIFIED,GF Social ESP/ITA/POR,GF Social ESP/ITA/POR
Il Tagliere,41.233502,16.3041483,,OpcionesCERT,CERTIFICADOS / CERTIFIED,GF Social ESP/ITA/POR,GF Social ESP/ITA/POR
Super Pizza,41.234041,16.3015637,,OpcionesCERT,CERTIFICADOS / CERTIFIED,GF Social ESP/ITA/POR,GF Social ESP/ITA/POR
Osteria Del Notaro,40.1964054,15.2604349,,OpcionesCERT,CERTIFICADOS / CERTIFIED,GF Social ESP/ITA/POR,GF Social ESP/ITA/POR
"""PiazzAntica"" Ristorante Pizzeria",40.79485249999999,17.1233256,,OpcionesCERT,CERTIFICADOS / CERTIFIED,GF Social ESP/ITA/POR,GF Social ESP/ITA/POR
Fratelli La Bufala Cosenza,39.2984241,16.2520822,,OpcionesCERT,CERTIFICADOS / CERTIFIED,GF Social ESP/ITA/POR,GF Social ESP/ITA/POR
RISTORANTE ENOTECA AL VICOLETTO,39.30308660000001,16.2509141,,OpcionesCERT,CERTIFICADOS / CERTIFIED,GF Social ESP/ITA/POR,GF Social ESP/ITA/POR
ITALY - Bottega del gelato,39.30621620000001,16.2481516,,OpcionesCERT,CERTIFICADOS / CERTIFIED,GF Social ESP/ITA/POR,GF Social ESP/ITA/POR
'A Cannarutia,39.31933859999999,16.2451172,,OpcionesCERT,CERTIFICADOS / CERTIFIED,GF Social ESP/ITA/POR,GF Social ESP/ITA/POR
Papero Verde,39.3400993,16.2461166,,OpcionesCERT,CERTIFICADOS / CERTIFIED,GF Social ESP/ITA/POR,GF Social ESP/ITA/POR
Löwengrube,39.3543691,16.242909,,OpcionesCERT,CERTIFICADOS / CERTIFIED,GF Social ESP/ITA/POR,GF Social ESP/ITA/POR
Agriturismo La Locanda del Greco,39.367086,16.130071,,OpcionesCERT,CERTIFICADOS / CERTIFIED,GF Social ESP/ITA/POR,GF Social ESP/ITA/POR
Villa Santa Caterina,39.4182541,16.2330736,,OpcionesCERT,CERTIFICADOS / CERTIFIED,GF Social ESP/ITA/POR,GF Social ESP/ITA/POR
Il Brillo Parlante - Lorica,39.249219,16.5094283,,OpcionesCERT,CERTIFICADOS / CERTIFIED,GF Social ESP/ITA/POR,GF Social ESP/ITA/POR
La Pignanella,39.3497731,16.4710261,,OpcionesCERT,CERTIFICADOS / CERTIFIED,GF Social ESP/ITA/POR,GF Social ESP/ITA/POR
Callipo,39.49228859999999,16.3796238,,OpcionesCERT,CERTIFICADOS / CERTIFIED,GF Social ESP/ITA/POR,GF Social ESP/ITA/POR
Lido Solero Beach,39.4277372,16.0030832,,OpcionesCERT,CERTIFICADOS / CERTIFIED,GF Social ESP/ITA/POR,GF Social ESP/ITA/POR
Panoramik Ristorante Pizzeria B&B,39.50111110000001,16.3913889,,OpcionesCERT,CERTIFICADOS / CERTIFIED,GF Social ESP/ITA/POR,GF Social ESP/ITA/POR
Lo Scoglio,39.46963880000001,15.973275100000002,,OpcionesCERT,CERTIFICADOS / CERTIFIED,GF Social ESP/ITA/POR,GF Social ESP/ITA/POR
Il Rifugio,39.1029043,16.5398093,,OpcionesCERT,CERTIFICADOS / CERTIFIED,GF Social ESP/ITA/POR,GF Social ESP/ITA/POR
Ammasciata Pizzeria Napoletana Autentica,39.5952233,16.1960046,,OpcionesCERT,CERTIFICADOS / CERTIFIED,GF Social ESP/ITA/POR,GF Social ESP/ITA/POR
RISTORANTEDAPAURA,39.2529824,16.6981434,,OpcionesCERT,CERTIFICADOS / CERTIFIED,GF Social ESP/ITA/POR,GF Social ESP/ITA/POR
Sant'Emilia Ristorante Pizzeria,39.624732,16.5165851,,OpcionesCERT,CERTIFICADOS / CERTIFIED,GF Social ESP/ITA/POR,GF Social ESP/ITA/POR
My Chef,38.9094534,16.2455442,,OpcionesCERT,CERTIFICADOS / CERTIFIED,GF Social ESP/ITA/POR,GF Social ESP/ITA/POR
Gelateria La Coccinella,38.8997556,16.3501513,,OpcionesCERT,CERTIFICADOS / CERTIFIED,GF Social ESP/ITA/POR,GF Social ESP/ITA/POR
Ristorante Pizzeria Pietrabianca,39.5781445,15.8693918,,OpcionesCERT,CERTIFICADOS / CERTIFIED,GF Social ESP/ITA/POR,GF Social ESP/ITA/POR
Agriturismo i colori del gusto,38.9216003,16.4737864,,OpcionesCERT,CERTIFICADOS / CERTIFIED,GF Social ESP/ITA/POR,GF Social ESP/ITA/POR
"""Sachsenhausen"" Pub Pizzeria Ristorante",39.5935515,15.8670964,,OpcionesCERT,CERTIFICADOS / CERTIFIED,GF Social ESP/ITA/POR,GF Social ESP/ITA/POR
Agriturismo Costantino,38.8754437,16.335997199999994,,OpcionesCERT,CERTIFICADOS / CERTIFIED,GF Social ESP/ITA/POR,GF Social ESP/ITA/POR
La Favola Antica,39.1205608,16.7739129,,OpcionesCERT,CERTIFICADOS / CERTIFIED,GF Social ESP/ITA/POR,GF Social ESP/ITA/POR
Il Dolce Forno di Boccuto - Stabilimento,38.8688331,16.6208806,,OpcionesCERT,CERTIFICADOS / CERTIFIED,GF Social ESP/ITA/POR,GF Social ESP/ITA/POR
Da Matti - Pub,38.9058185,16.590361,,OpcionesCERT,CERTIFICADOS / CERTIFIED,GF Social ESP/ITA/POR,GF Social ESP/ITA/POR
Perri's Bistrot,38.89184830000001,16.6018113,,OpcionesCERT,CERTIFICADOS / CERTIFIED,GF Social ESP/ITA/POR,GF Social ESP/ITA/POR
Ristorante Pizzeria Event,38.8590762,16.6223278,,OpcionesCERT,CERTIFICADOS / CERTIFIED,GF Social ESP/ITA/POR,GF Social ESP/ITA/POR
Agriturismo Virgena,38.79688879999999,16.5130224,,OpcionesCERT,CERTIFICADOS / CERTIFIED,GF Social ESP/ITA/POR,GF Social ESP/ITA/POR
Bounty Killer,38.8276457,16.6279124,,OpcionesCERT,CERTIFICADOS / CERTIFIED,GF Social ESP/ITA/POR,GF Social ESP/ITA/POR
Ristorante La Paladina,38.74117,16.502804,,OpcionesCERT,CERTIFICADOS / CERTIFIED,GF Social ESP/ITA/POR,GF Social ESP/ITA/POR
Ristorante Pizzeria Pedro's,39.5059242,16.9378547,,OpcionesCERT,CERTIFICADOS / CERTIFIED,GF Social ESP/ITA/POR,GF Social ESP/ITA/POR
The Truffle Domenico Penna,38.738147,16.1770842,,OpcionesCERT,CERTIFICADOS / CERTIFIED,GF Social ESP/ITA/POR,GF Social ESP/ITA/POR
Ristorante Pizzeria San Marco,38.9158384,16.8072608,,OpcionesCERT,CERTIFICADOS / CERTIFIED,GF Social ESP/ITA/POR,GF Social ESP/ITA/POR
PRIMAOPOI Ristorante & Pizza,38.90864049999999,16.8051756,,OpcionesCERT,CERTIFICADOS / CERTIFIED,GF Social ESP/ITA/POR,GF Social ESP/ITA/POR
La Rada,38.722435,16.1251907,,OpcionesCERT,CERTIFICADOS / CERTIFIED,GF Social ESP/ITA/POR,GF Social ESP/ITA/POR
Tato's Pizzeria Birreria Hamburgheria Gourmet Paninoteca Street Food Consegna Domicilio..,38.7135158,16.1276218,,OpcionesCERT,CERTIFICADOS / CERTIFIED,GF Social ESP/ITA/POR,GF Social ESP/ITA/POR
Agriturismo - Tenuta Fortunato,40.18988979999999,16.3514068,,OpcionesCERT,CERTIFICADOS / CERTIFIED,GF Social ESP/ITA/POR,GF Social ESP/ITA/POR
Pizzeria PizzArte di Michele Seminara,38.4290633,16.0644955,,OpcionesCERT,CERTIFICADOS / CERTIFIED,GF Social ESP/ITA/POR,GF Social ESP/ITA/POR
Antica Ciambra Ristorante Pizzeria,38.4251817,15.879621499999999,,OpcionesCERT,CERTIFICADOS / CERTIFIED,GF Social ESP/ITA/POR,GF Social ESP/ITA/POR
La Cucciarda Ristorante Pizzeria,38.387889,15.9965517,,OpcionesCERT,CERTIFICADOS / CERTIFIED,GF Social ESP/ITA/POR,GF Social ESP/ITA/POR
Borgo Cariati Di Maria Luisa Pillari C Sas,38.3912239,15.9452075,,OpcionesCERT,CERTIFICADOS / CERTIFIED,GF Social ESP/ITA/POR,GF Social ESP/ITA/POR
Ristorante Metropolis,38.3593583,16.0141139,,OpcionesCERT,CERTIFICADOS / CERTIFIED,GF Social ESP/ITA/POR,GF Social ESP/ITA/POR
Il Fornello,38.3038746,16.3320987,,OpcionesCERT,CERTIFICADOS / CERTIFIED,GF Social ESP/ITA/POR,GF Social ESP/ITA/POR
Gelateria Vittorio,40.00113069999999,15.3758932,,OpcionesCERT,CERTIFICADOS / CERTIFIED,GF Social ESP/ITA/POR,GF Social ESP/ITA/POR
La Cascina 1899,38.31074510000001,16.3726328,,OpcionesCERT,CERTIFICADOS / CERTIFIED,GF Social ESP/ITA/POR,GF Social ESP/ITA/POR
Rocco Borzomì,38.3211971,16.4054172,,OpcionesCERT,CERTIFICADOS / CERTIFIED,GF Social ESP/ITA/POR,GF Social ESP/ITA/POR
Golosia,38.2997939,16.3285167,,OpcionesCERT,CERTIFICADOS / CERTIFIED,GF Social ESP/ITA/POR,GF Social ESP/ITA/POR
Bierkeller,40.8458821,14.230358,,OpcionesCERT,CERTIFICADOS / CERTIFIED,GF Social ESP/ITA/POR,GF Social ESP/ITA/POR
Johnny's Irish Pub,40.84603,14.2330953,,OpcionesCERT,CERTIFICADOS / CERTIFIED,GF Social ESP/ITA/POR,GF Social ESP/ITA/POR
Golocious Pizza&Cucina Napoli Cimarosa,40.8426728,14.2295684,,OpcionesCERT,CERTIFICADOS / CERTIFIED,GF Social ESP/ITA/POR,GF Social ESP/ITA/POR
Il Colmo Del Pizzaiolo,40.8427699,14.2218094,,OpcionesCERT,CERTIFICADOS / CERTIFIED,GF Social ESP/ITA/POR,GF Social ESP/ITA/POR
Biergarten,40.8416966,14.2272561,,OpcionesCERT,CERTIFICADOS / CERTIFIED,GF Social ESP/ITA/POR,GF Social ESP/ITA/POR
Ristorante Pizzeria Mascagni,40.8448307,14.220938,,OpcionesCERT,CERTIFICADOS / CERTIFIED,GF Social ESP/ITA/POR,GF Social ESP/ITA/POR
OVEN Forno Vegetariano,40.849702500000014,14.2527196,,OpcionesCERT,CERTIFICADOS / CERTIFIED,GF Social ESP/ITA/POR,GF Social ESP/ITA/POR
Pizzaioli Veraci,40.8403417,14.2484606,,OpcionesCERT,CERTIFICADOS / CERTIFIED,GF Social ESP/ITA/POR,GF Social ESP/ITA/POR
Umberto,40.834835,14.241205000000003,,OpcionesCERT,CERTIFICADOS / CERTIFIED,GF Social ESP/ITA/POR,GF Social ESP/ITA/POR
QBOO,40.8685,14.2309,,OpcionesCERT,CERTIFICADOS / CERTIFIED,GF Social ESP/ITA/POR,GF Social ESP/ITA/POR
BELLILLO IT - Pizzeria Napoletana,40.84058750000001,14.2536867,,OpcionesCERT,CERTIFICADOS / CERTIFIED,GF Social ESP/ITA/POR,GF Social ESP/ITA/POR
La Locanda Gesù Vecchio,40.8472376,14.257148100000002,,OpcionesCERT,CERTIFICADOS / CERTIFIED,GF Social ESP/ITA/POR,GF Social ESP/ITA/POR
Mama Eat,40.8366911,14.2131827,,OpcionesCERT,CERTIFICADOS / CERTIFIED,GF Social ESP/ITA/POR,GF Social ESP/ITA/POR
Rescigno,40.8559564,14.257657,,OpcionesCERT,CERTIFICADOS / CERTIFIED,GF Social ESP/ITA/POR,GF Social ESP/ITA/POR
Mammina Napoli,40.83037100000001,14.2449761,,OpcionesCERT,CERTIFICADOS / CERTIFIED,GF Social ESP/ITA/POR,GF Social ESP/ITA/POR
N'ata Cosa Trattoria e Pizzeria,40.82399360000001,14.2197198,,OpcionesCERT,CERTIFICADOS / CERTIFIED,GF Social ESP/ITA/POR,GF Social ESP/ITA/POR
VyTA,40.8522185,14.2722772,,OpcionesCERT,CERTIFICADOS / CERTIFIED,GF Social ESP/ITA/POR,GF Social ESP/ITA/POR
Pizzeria Serenella,40.8645045,14.2692419,,OpcionesCERT,CERTIFICADOS / CERTIFIED,GF Social ESP/ITA/POR,GF Social ESP/ITA/POR
Pizzaioli Veraci Fuorigrotta,40.8264573,14.2000522,,OpcionesCERT,CERTIFICADOS / CERTIFIED,GF Social ESP/ITA/POR,GF Social ESP/ITA/POR
Pizzeria Club degli Amici,40.88478200000001,14.2296044,,OpcionesCERT,CERTIFICADOS / CERTIFIED,GF Social ESP/ITA/POR,GF Social ESP/ITA/POR
Da Raffaele F.lli Pellone,40.83083329999999,14.1930556,,OpcionesCERT,CERTIFICADOS / CERTIFIED,GF Social ESP/ITA/POR,GF Social ESP/ITA/POR
Pizzeria Pizza Napoletana,40.87277699999999,14.2703993,,OpcionesCERT,CERTIFICADOS / CERTIFIED,GF Social ESP/ITA/POR,GF Social ESP/ITA/POR
Donna Luisella Take Away,40.886233,14.267415,,OpcionesCERT,CERTIFICADOS / CERTIFIED,GF Social ESP/ITA/POR,GF Social ESP/ITA/POR
Farine Coffee And Bakery,40.8782283,14.2830014,,OpcionesCERT,CERTIFICADOS / CERTIFIED,GF Social ESP/ITA/POR,GF Social ESP/ITA/POR
Sottozero,40.80293289999999,14.1884613,,OpcionesCERT,CERTIFICADOS / CERTIFIED,GF Social ESP/ITA/POR,GF Social ESP/ITA/POR
Pizzeria F.lli Vitale,40.907788,14.2610019,,OpcionesCERT,CERTIFICADOS / CERTIFIED,GF Social ESP/ITA/POR,GF Social ESP/ITA/POR
Pizzeria Tutta N'Ata Storia,40.91271079999999,14.2143802,,OpcionesCERT,CERTIFICADOS / CERTIFIED,GF Social ESP/ITA/POR,GF Social ESP/ITA/POR
Arcadia Restaurant Park,40.87779580000001,14.156040300000003,,OpcionesCERT,CERTIFICADOS / CERTIFIED,GF Social ESP/ITA/POR,GF Social ESP/ITA/POR
NAPOLI NORD,40.9138872,14.2326765,,OpcionesCERT,CERTIFICADOS / CERTIFIED,GF Social ESP/ITA/POR,GF Social ESP/ITA/POR
Leone Ristobracepizza,40.9187648,14.250551700000003,,OpcionesCERT,CERTIFICADOS / CERTIFIED,GF Social ESP/ITA/POR,GF Social ESP/ITA/POR
Pizzeria Salvo - San Giorgio a Cremano,40.8255337,14.330597799999998,,OpcionesCERT,CERTIFICADOS / CERTIFIED,GF Social ESP/ITA/POR,GF Social ESP/ITA/POR
La Cucina Degli Amici,40.821596,14.126489,,OpcionesCERT,CERTIFICADOS / CERTIFIED,GF Social ESP/ITA/POR,GF Social ESP/ITA/POR
Ristorante Il Rudere,40.826624,14.122446,,OpcionesCERT,CERTIFICADOS / CERTIFIED,GF Social ESP/ITA/POR,GF Social ESP/ITA/POR
Menhir,40.82362379999999,14.1220896,,OpcionesCERT,CERTIFICADOS / CERTIFIED,GF Social ESP/ITA/POR,GF Social ESP/ITA/POR
Sottozero Gelateria della Signora,40.8226834,14.1211152,,OpcionesCERT,CERTIFICADOS / CERTIFIED,GF Social ESP/ITA/POR,GF Social ESP/ITA/POR
Tutto Gelato,40.835157,14.34677,,OpcionesCERT,CERTIFICADOS / CERTIFIED,GF Social ESP/ITA/POR,GF Social ESP/ITA/POR
Gastró Frattamaggiore,40.9369059,14.2718191,,OpcionesCERT,CERTIFICADOS / CERTIFIED,GF Social ESP/ITA/POR,GF Social ESP/ITA/POR
GREENHOUSE Restaurant Bar,40.9381534,14.2697898,,OpcionesCERT,CERTIFICADOS / CERTIFIED,GF Social ESP/ITA/POR,GF Social ESP/ITA/POR
Nonna Mà Pizzeria Trattoria,40.9384069,14.2704458,,OpcionesCERT,CERTIFICADOS / CERTIFIED,GF Social ESP/ITA/POR,GF Social ESP/ITA/POR
Deluxe Mele Mele Di Rocco Sas,40.9323938,14.2895352,,OpcionesCERT,CERTIFICADOS / CERTIFIED,GF Social ESP/ITA/POR,GF Social ESP/ITA/POR
Salotto Fico,40.819883,14.348292400000002,,OpcionesCERT,CERTIFICADOS / CERTIFIED,GF Social ESP/ITA/POR,GF Social ESP/ITA/POR
Panino Macelleria Egidio - Puroro Pizza Fritta,40.82003720000001,14.3481747,,OpcionesCERT,CERTIFICADOS / CERTIFIED,GF Social ESP/ITA/POR,GF Social ESP/ITA/POR
PalaPizza - Il Palazzo Della Pizza,40.941702,14.269101,,OpcionesCERT,CERTIFICADOS / CERTIFIED,GF Social ESP/ITA/POR,GF Social ESP/ITA/POR
Funiculì Funiculà,40.8480108,14.35917,,OpcionesCERT,CERTIFICADOS / CERTIFIED,GF Social ESP/ITA/POR,GF Social ESP/ITA/POR
Blackburger,40.944552,14.2703511,,OpcionesCERT,CERTIFICADOS / CERTIFIED,GF Social ESP/ITA/POR,GF Social ESP/ITA/POR
Pasticceria Generoso,40.8088909,14.353637900000003,,OpcionesCERT,CERTIFICADOS / CERTIFIED,GF Social ESP/ITA/POR,GF Social ESP/ITA/POR
Yogurteria Yolly,40.91341389999999,14.3466394,,OpcionesCERT,CERTIFICADOS / CERTIFIED,GF Social ESP/ITA/POR,GF Social ESP/ITA/POR
Morsi & Rimorsi - Pizzeria Aversa,40.9591707,14.2117282,,OpcionesCERT,CERTIFICADOS / CERTIFIED,GF Social ESP/ITA/POR,GF Social ESP/ITA/POR
Tre Farine | Aversa,40.9605605,14.2009504,,OpcionesCERT,CERTIFICADOS / CERTIFIED,GF Social ESP/ITA/POR,GF Social ESP/ITA/POR
Pizzeria F.lli Vallefuoco,40.96175059999999,14.210651700000001,,OpcionesCERT,CERTIFICADOS / CERTIFIED,GF Social ESP/ITA/POR,GF Social ESP/ITA/POR
Pizzeria La Sorrisi,40.96952849999999,14.2130148,,OpcionesCERT,CERTIFICADOS / CERTIFIED,GF Social ESP/ITA/POR,GF Social ESP/ITA/POR
La Dolce Vita,40.87453410000001,14.386897499999998,,OpcionesCERT,CERTIFICADOS / CERTIFIED,GF Social ESP/ITA/POR,GF Social ESP/ITA/POR
La Contrada di Tony Ristorante & Pizzeria,40.84704540000001,14.0703042,,OpcionesCERT,CERTIFICADOS / CERTIFIED,GF Social ESP/ITA/POR,GF Social ESP/ITA/POR
Infinity Cornetteria Paninoteca,40.98203549999999,14.2101936,,OpcionesCERT,CERTIFICADOS / CERTIFIED,GF Social ESP/ITA/POR,GF Social ESP/ITA/POR
Libro's Cool Aversa,40.9727322,14.2137099,,OpcionesCERT,CERTIFICADOS / CERTIFIED,GF Social ESP/ITA/POR,GF Social ESP/ITA/POR
Gelateria Yogurteria Smile Gel Aversa,40.9732384,14.2094019,,OpcionesCERT,CERTIFICADOS / CERTIFIED,GF Social ESP/ITA/POR,GF Social ESP/ITA/POR
Gastró Aversa,40.98157690000001,14.2087286,,OpcionesCERT,CERTIFICADOS / CERTIFIED,GF Social ESP/ITA/POR,GF Social ESP/ITA/POR
Ristorante Pizzeria F.lli Cuorvo di Mimmo e Gioacchino,40.9122253,14.3914235,,OpcionesCERT,CERTIFICADOS / CERTIFIED,GF Social ESP/ITA/POR,GF Social ESP/ITA/POR
Sciuè il panino vesuviano,40.9068578,14.3947476,,OpcionesCERT,CERTIFICADOS / CERTIFIED,GF Social ESP/ITA/POR,GF Social ESP/ITA/POR
Chapeau,40.98548059999999,14.1778055,,OpcionesCERT,CERTIFICADOS / CERTIFIED,GF Social ESP/ITA/POR,GF Social ESP/ITA/POR
Yogurteria Yolly,40.9128149,14.397862000000002,,OpcionesCERT,CERTIFICADOS / CERTIFIED,GF Social ESP/ITA/POR,GF Social ESP/ITA/POR
Mulino Primavera - Ristorante Pizzeria,40.9508382,14.364655400000002,,OpcionesCERT,CERTIFICADOS / CERTIFIED,GF Social ESP/ITA/POR,GF Social ESP/ITA/POR
LievitoSfizio - Pizzeria Friggitoria,40.9065885,14.4084929,,OpcionesCERT,CERTIFICADOS / CERTIFIED,GF Social ESP/ITA/POR,GF Social ESP/ITA/POR
Il Magnifico,40.9968622,14.207532500000001,,OpcionesCERT,CERTIFICADOS / CERTIFIED,GF Social ESP/ITA/POR,GF Social ESP/ITA/POR
Perna Pizzeria & Friggitoria,40.7724838,14.400980900000002,,OpcionesCERT,CERTIFICADOS / CERTIFIED,GF Social ESP/ITA/POR,GF Social ESP/ITA/POR
Pizzeria da Nino Pannella,40.9434395,14.3838074,,OpcionesCERT,CERTIFICADOS / CERTIFIED,GF Social ESP/ITA/POR,GF Social ESP/ITA/POR
La Lanterna,40.8682092,14.4334138,,OpcionesCERT,CERTIFICADOS / CERTIFIED,GF Social ESP/ITA/POR,GF Social ESP/ITA/POR
Pizzeria 6 spicchi,40.8764607,14.435274600000001,,OpcionesCERT,CERTIFICADOS / CERTIFIED,GF Social ESP/ITA/POR,GF Social ESP/ITA/POR
Pizza Saporito,40.9325398,14.4279256,,OpcionesCERT,CERTIFICADOS / CERTIFIED,GF Social ESP/ITA/POR,GF Social ESP/ITA/POR
Maxi ó Bar,40.848625,14.475484999999999,,OpcionesCERT,CERTIFICADOS / CERTIFIED,GF Social ESP/ITA/POR,GF Social ESP/ITA/POR
Yogurteria Yolly,40.9245879,14.4593451,,OpcionesCERT,CERTIFICADOS / CERTIFIED,GF Social ESP/ITA/POR,GF Social ESP/ITA/POR
Torre Birraia,40.7563259,14.4439059,,OpcionesCERT,CERTIFICADOS / CERTIFIED,GF Social ESP/ITA/POR,GF Social ESP/ITA/POR
Britannia by Vagabondo,40.9283036,14.482632799999998,,OpcionesCERT,CERTIFICADOS / CERTIFIED,GF Social ESP/ITA/POR,GF Social ESP/ITA/POR
Bar Sicilia,40.8328149,14.5048021,,OpcionesCERT,CERTIFICADOS / CERTIFIED,GF Social ESP/ITA/POR,GF Social ESP/ITA/POR
Yogurteria Yolly,40.8329472,14.5048214,,OpcionesCERT,CERTIFICADOS / CERTIFIED,GF Social ESP/ITA/POR,GF Social ESP/ITA/POR
"Ristorante-Pizzeria ""Palm Garden""",40.7908985,14.500966000000002,,OpcionesCERT,CERTIFICADOS / CERTIFIED,GF Social ESP/ITA/POR,GF Social ESP/ITA/POR
Ristorante e Pizzeria A'ddò Napulitano di Marino Cosimo,41.0338973,14.3794197,,OpcionesCERT,CERTIFICADOS / CERTIFIED,GF Social ESP/ITA/POR,GF Social ESP/ITA/POR
Ristorante Pizzeria Primavera,40.8617452,14.5191501,,OpcionesCERT,CERTIFICADOS / CERTIFIED,GF Social ESP/ITA/POR,GF Social ESP/ITA/POR
The Dream 64,40.7487707,14.4980641,,OpcionesCERT,CERTIFICADOS / CERTIFIED,GF Social ESP/ITA/POR,GF Social ESP/ITA/POR
Ristorante Pompeo Magno,40.7442436,14.496006000000001,,OpcionesCERT,CERTIFICADOS / CERTIFIED,GF Social ESP/ITA/POR,GF Social ESP/ITA/POR
Likitta,39.2186907,9.121358700000002,,OpcionesCERT,CERTIFICADOS / CERTIFIED,GF Social ESP/ITA/POR,GF Social ESP/ITA/POR
Pizzeria Da Rita,39.2240265,9.1303009,,OpcionesCERT,CERTIFICADOS / CERTIFIED,GF Social ESP/ITA/POR,GF Social ESP/ITA/POR
Transumanza,39.2116495,9.120804699999999,,OpcionesCERT,CERTIFICADOS / CERTIFIED,GF Social ESP/ITA/POR,GF Social ESP/ITA/POR
Pizzeria TAKE AWAY Gastronomia Colombo Di Angius Stefano,39.2356724,9.182337399999998,,OpcionesCERT,CERTIFICADOS / CERTIFIED,GF Social ESP/ITA/POR,GF Social ESP/ITA/POR
Movies Pizzeria,39.2446586,9.191491499999998,,OpcionesCERT,CERTIFICADOS / CERTIFIED,GF Social ESP/ITA/POR,GF Social ESP/ITA/POR
Aicha La Piazza del Gusto,39.3046037,9.066094099999999,,OpcionesCERT,CERTIFICADOS / CERTIFIED,GF Social ESP/ITA/POR,GF Social ESP/ITA/POR
Sapore antico,39.29223649999999,8.9953086,,OpcionesCERT,CERTIFICADOS / CERTIFIED,GF Social ESP/ITA/POR,GF Social ESP/ITA/POR
Ristorante Pizzeria PIZZA FOLLE,39.2783816,9.524533,,OpcionesCERT,CERTIFICADOS / CERTIFIED,GF Social ESP/ITA/POR,GF Social ESP/ITA/POR
SA Morisca Ristorante Pizzeria,39.1383241,9.523164500000004,,OpcionesCERT,CERTIFICADOS / CERTIFIED,GF Social ESP/ITA/POR,GF Social ESP/ITA/POR
La Capanna Villasimius,39.12836499999999,9.529295699999997,,OpcionesCERT,CERTIFICADOS / CERTIFIED,GF Social ESP/ITA/POR,GF Social ESP/ITA/POR
Araxi 'e mari di Guidetti Giorgia,39.2027222,9.5523438,,OpcionesCERT,CERTIFICADOS / CERTIFIED,GF Social ESP/ITA/POR,GF Social ESP/ITA/POR
Centrale 38,39.1665687,8.5244941,,OpcionesCERT,CERTIFICADOS / CERTIFIED,GF Social ESP/ITA/POR,GF Social ESP/ITA/POR
"Ristorante Pizzeria ""Tamatta""",40.3268569,9.280947799999998,,OpcionesCERT,CERTIFICADOS / CERTIFIED,GF Social ESP/ITA/POR,GF Social ESP/ITA/POR
S'Adde,40.2871399,9.5909386,,OpcionesCERT,CERTIFICADOS / CERTIFIED,GF Social ESP/ITA/POR,GF Social ESP/ITA/POR
"La Vecchia Metro Pizzeria, Cozzeria, Ristorante",40.7763902,9.666304199999997,,OpcionesCERT,CERTIFICADOS / CERTIFIED,GF Social ESP/ITA/POR,GF Social ESP/ITA/POR
L'M Ristorante,41.04571619999999,9.4707917,,OpcionesCERT,CERTIFICADOS / CERTIFIED,GF Social ESP/ITA/POR,GF Social ESP/ITA/POR
Ristorante La Rocca da Chiara,41.1170544,9.470642,,OpcionesCERT,CERTIFICADOS / CERTIFIED,GF Social ESP/ITA/POR,GF Social ESP/ITA/POR
Ristorante Il Paguro,41.1690462,9.4213642,,OpcionesCERT,CERTIFICADOS / CERTIFIED,GF Social ESP/ITA/POR,GF Social ESP/ITA/POR
Gelateria Fiore di Maggio,41.18076429999999,9.383275799999998,,OpcionesCERT,CERTIFICADOS / CERTIFIED,GF Social ESP/ITA/POR,GF Social ESP/ITA/POR
"Pizzeria con giardino ""Peri Peri"" PIZZE anche senza GLUTINE con FORNO a LEGNA dentro alla STAZIONE ferroviaria di TRAPANI",38.0170051,12.5184567,,OpcionesCERT,CERTIFICADOS / CERTIFIED,GF Social ESP/ITA/POR,GF Social ESP/ITA/POR
Pasticceria F.lli Virzi,38.0312691,12.5405361,,OpcionesCERT,CERTIFICADOS / CERTIFIED,GF Social ESP/ITA/POR,GF Social ESP/ITA/POR
Salamureci Ristorante e camere - Chef Patron Michele Bellezza,38.0169128,12.5023155,,OpcionesCERT,CERTIFICADOS / CERTIFIED,GF Social ESP/ITA/POR,GF Social ESP/ITA/POR
L'Acquolina In Bocca di Cucci Giuseppe,38.027167,12.5488989,,OpcionesCERT,CERTIFICADOS / CERTIFIED,GF Social ESP/ITA/POR,GF Social ESP/ITA/POR
CAFFE 'BABY MOON,38.0141439,12.5532497,,OpcionesCERT,CERTIFICADOS / CERTIFIED,GF Social ESP/ITA/POR,GF Social ESP/ITA/POR
Duca di Castelmonte,37.9931789,12.564764000000002,,OpcionesCERT,CERTIFICADOS / CERTIFIED,GF Social ESP/ITA/POR,GF Social ESP/ITA/POR
Agriturismo Vultaggio 3 stelle,37.91903509999999,12.5659462,,OpcionesCERT,CERTIFICADOS / CERTIFIED,GF Social ESP/ITA/POR,GF Social ESP/ITA/POR
dal Cozzaro,38.1771672,12.7335539,,OpcionesCERT,CERTIFICADOS / CERTIFIED,GF Social ESP/ITA/POR,GF Social ESP/ITA/POR
Le Plus Bon,38.1760207,12.7333872,,OpcionesCERT,CERTIFICADOS / CERTIFIED,GF Social ESP/ITA/POR,GF Social ESP/ITA/POR
Trionfo di Gola | Ristorante - Pizzeria | San Vito Lo Capo - Trapani,38.175769,12.7337107,,OpcionesCERT,CERTIFICADOS / CERTIFIED,GF Social ESP/ITA/POR,GF Social ESP/ITA/POR
Mancia e Vattinni Street Food,38.1742002,12.7339093,,OpcionesCERT,CERTIFICADOS / CERTIFIED,GF Social ESP/ITA/POR,GF Social ESP/ITA/POR
Pizz'art,37.7089426,12.4822181,,OpcionesCERT,CERTIFICADOS / CERTIFIED,GF Social ESP/ITA/POR,GF Social ESP/ITA/POR
La Conchiglia,37.645106,12.6021835,,OpcionesCERT,CERTIFICADOS / CERTIFIED,GF Social ESP/ITA/POR,GF Social ESP/ITA/POR
Ristorante Solemare,38.0283239,12.8791956,,OpcionesCERT,CERTIFICADOS / CERTIFIED,GF Social ESP/ITA/POR,GF Social ESP/ITA/POR
Sapore di Sicilia - Carini - Poseidon,38.1744209,13.2185529,,OpcionesCERT,CERTIFICADOS / CERTIFIED,GF Social ESP/ITA/POR,GF Social ESP/ITA/POR
Poldo 2 Mondello,38.2067689,13.325765200000001,,OpcionesCERT,CERTIFICADOS / CERTIFIED,GF Social ESP/ITA/POR,GF Social ESP/ITA/POR
Mandarini Ristorante - Pizzeria,38.1704852,13.322949300000001,,OpcionesCERT,CERTIFICADOS / CERTIFIED,GF Social ESP/ITA/POR,GF Social ESP/ITA/POR
Pizzeria Borrelli,38.1624661,13.321948,,OpcionesCERT,CERTIFICADOS / CERTIFIED,GF Social ESP/ITA/POR,GF Social ESP/ITA/POR
Il Gelato Della Piazzetta,38.08135370000001,13.2903288,,OpcionesCERT,CERTIFICADOS / CERTIFIED,GF Social ESP/ITA/POR,GF Social ESP/ITA/POR
Vizi & Sfizi - Pizza e Cucina,38.15402019999999,13.3308979,,OpcionesCERT,CERTIFICADOS / CERTIFIED,GF Social ESP/ITA/POR,GF Social ESP/ITA/POR
PizziCotto,38.1545276,13.3325042,,OpcionesCERT,CERTIFICADOS / CERTIFIED,GF Social ESP/ITA/POR,GF Social ESP/ITA/POR
Don Carmelo Pizzeria Ristorante,38.1466667,13.3305556,,OpcionesCERT,CERTIFICADOS / CERTIFIED,GF Social ESP/ITA/POR,GF Social ESP/ITA/POR
Sal Capone Sushi & Pizza,38.1470837,13.3403776,,OpcionesCERT,CERTIFICADOS / CERTIFIED,GF Social ESP/ITA/POR,GF Social ESP/ITA/POR
Pizzeria L'arte Bianca,38.1423615,13.3403138,,OpcionesCERT,CERTIFICADOS / CERTIFIED,GF Social ESP/ITA/POR,GF Social ESP/ITA/POR
Le Tre P,38.1442156,13.3407882,,OpcionesCERT,CERTIFICADOS / CERTIFIED,GF Social ESP/ITA/POR,GF Social ESP/ITA/POR
Pizzeria La Salsiera,38.14085499999999,13.3413875,,OpcionesCERT,CERTIFICADOS / CERTIFIED,GF Social ESP/ITA/POR,GF Social ESP/ITA/POR
BurgerPizza,38.1342595,13.3397284,,OpcionesCERT,CERTIFICADOS / CERTIFIED,GF Social ESP/ITA/POR,GF Social ESP/ITA/POR
La Dolce Vita,38.1367999,13.3427332,,OpcionesCERT,CERTIFICADOS / CERTIFIED,GF Social ESP/ITA/POR,GF Social ESP/ITA/POR
Cucinando a Vignola,44.4820773,11.0044764,,OpcionesCERT,CERTIFICADOS / CERTIFIED,GF Social ESP/ITA/POR,GF Social ESP/ITA/POR
La Rusticana,44.47967269999999,11.0093185,,OpcionesCERT,CERTIFICADOS / CERTIFIED,GF Social ESP/ITA/POR,GF Social ESP/ITA/POR
Gelateria L'Artigiano,44.4940019,11.0197946,,OpcionesCERT,CERTIFICADOS / CERTIFIED,GF Social ESP/ITA/POR,GF Social ESP/ITA/POR
Ristorante Pizzeria Picaresco,44.5511934,10.8974622,,OpcionesCERT,CERTIFICADOS / CERTIFIED,GF Social ESP/ITA/POR,GF Social ESP/ITA/POR
Parco Dei Ciliegi,44.47342969999999,11.2127494,,OpcionesCERT,CERTIFICADOS / CERTIFIED,GF Social ESP/ITA/POR,GF Social ESP/ITA/POR
Gelateria Alaska,44.572956,10.852451,,OpcionesCERT,CERTIFICADOS / CERTIFIED,GF Social ESP/ITA/POR,GF Social ESP/ITA/POR
Löwengrube,44.6302372,10.9654173,,OpcionesCERT,CERTIFICADOS / CERTIFIED,GF Social ESP/ITA/POR,GF Social ESP/ITA/POR
My Chef La Pioppa Ovest,44.5185028,11.2148932,,OpcionesCERT,CERTIFICADOS / CERTIFIED,GF Social ESP/ITA/POR,GF Social ESP/ITA/POR
Slurp Morane 433,44.62444319999999,10.927342,,OpcionesCERT,CERTIFICADOS / CERTIFIED,GF Social ESP/ITA/POR,GF Social ESP/ITA/POR
La Griglia,44.635270000000006,10.931873700000002,,OpcionesCERT,CERTIFICADOS / CERTIFIED,GF Social ESP/ITA/POR,GF Social ESP/ITA/POR
SLURP,44.640628,10.931234,,OpcionesCERT,CERTIFICADOS / CERTIFIED,GF Social ESP/ITA/POR,GF Social ESP/ITA/POR
Osteria Stallo del Pomodoro,44.64347739999999,10.929675400000002,,OpcionesCERT,CERTIFICADOS / CERTIFIED,GF Social ESP/ITA/POR,GF Social ESP/ITA/POR
Fusorari Cibi & Viaggi,44.64375810000001,10.9241754,,OpcionesCERT,CERTIFICADOS / CERTIFIED,GF Social ESP/ITA/POR,GF Social ESP/ITA/POR
Aragosta Seafood & Pizza,44.545509,10.77969,,OpcionesCERT,CERTIFICADOS / CERTIFIED,GF Social ESP/ITA/POR,GF Social ESP/ITA/POR
Dulzy,44.64700879999999,10.9279292,,OpcionesCERT,CERTIFICADOS / CERTIFIED,GF Social ESP/ITA/POR,GF Social ESP/ITA/POR
Pizzeria Anissa,44.6533563,10.9432203,,OpcionesCERT,CERTIFICADOS / CERTIFIED,GF Social ESP/ITA/POR,GF Social ESP/ITA/POR
I DISSONANTI .. PIZZA E ALTRO,44.65001549999999,10.9247009,,OpcionesCERT,CERTIFICADOS / CERTIFIED,GF Social ESP/ITA/POR,GF Social ESP/ITA/POR
Doppiozero Food Lab - Modena,44.6588186,10.9203036,,OpcionesCERT,CERTIFICADOS / CERTIFIED,GF Social ESP/ITA/POR,GF Social ESP/ITA/POR
Origano Pizza TAKE AWAY- Pizzeria da asporto a Casalecchio di Reno,44.45556389999999,11.2739052,,OpcionesCERT,CERTIFICADOS / CERTIFIED,GF Social ESP/ITA/POR,GF Social ESP/ITA/POR
Ristorante Pizzeria Gianni,44.5541293,10.7524579,,OpcionesCERT,CERTIFICADOS / CERTIFIED,GF Social ESP/ITA/POR,GF Social ESP/ITA/POR
Pizza Matta,44.67784559999999,11.037618000000002,,OpcionesCERT,CERTIFICADOS / CERTIFIED,GF Social ESP/ITA/POR,GF Social ESP/ITA/POR
Autogrill Cantagallo Est,44.4560687,11.2808452,,OpcionesCERT,CERTIFICADOS / CERTIFIED,GF Social ESP/ITA/POR,GF Social ESP/ITA/POR
Pan Reale Senza Glutine,44.64887,10.858154,,OpcionesCERT,CERTIFICADOS / CERTIFIED,GF Social ESP/ITA/POR,GF Social ESP/ITA/POR
Ristorante Pizzeria Itaca,44.55960959999999,11.2703346,,OpcionesCERT,CERTIFICADOS / CERTIFIED,GF Social ESP/ITA/POR,GF Social ESP/ITA/POR
Ristorante Pizzeria Due Lune,44.49985359999999,11.295638,,OpcionesCERT,CERTIFICADOS / CERTIFIED,GF Social ESP/ITA/POR,GF Social ESP/ITA/POR
Ristorante Pizzeria La Pantera Rosa,44.6008998,10.7679486,,OpcionesCERT,CERTIFICADOS / CERTIFIED,GF Social ESP/ITA/POR,GF Social ESP/ITA/POR
La Fattoria,44.663219,11.1752596,,OpcionesCERT,CERTIFICADOS / CERTIFIED,GF Social ESP/ITA/POR,GF Social ESP/ITA/POR
Agriturismo - Farmhouse Casa Minelli,44.3255,10.787292,,OpcionesCERT,CERTIFICADOS / CERTIFIED,GF Social ESP/ITA/POR,GF Social ESP/ITA/POR
Papeo to go - TAKE AWAY,44.4975935,11.3193655,,OpcionesCERT,CERTIFICADOS / CERTIFIED,GF Social ESP/ITA/POR,GF Social ESP/ITA/POR
Papeo to go - TAKE AWAY,44.5226048,11.3199442,,OpcionesCERT,CERTIFICADOS / CERTIFIED,GF Social ESP/ITA/POR,GF Social ESP/ITA/POR
Ristorante Libra Antiaging Italian Food,44.4945418,11.3376868,,OpcionesCERT,CERTIFICADOS / CERTIFIED,GF Social ESP/ITA/POR,GF Social ESP/ITA/POR
La Verace,44.5035293,11.3386933,,OpcionesCERT,CERTIFICADOS / CERTIFIED,GF Social ESP/ITA/POR,GF Social ESP/ITA/POR
Trattoria Vecchio Mercato,44.5159762,11.3372608,,OpcionesCERT,CERTIFICADOS / CERTIFIED,GF Social ESP/ITA/POR,GF Social ESP/ITA/POR
Vyta,44.50579500000001,11.3425608,,OpcionesCERT,CERTIFICADOS / CERTIFIED,GF Social ESP/ITA/POR,GF Social ESP/ITA/POR
Arcipizza - TAKE AWAY,44.5139224,11.3419062,,OpcionesCERT,CERTIFICADOS / CERTIFIED,GF Social ESP/ITA/POR,GF Social ESP/ITA/POR
Casa Altabella,44.49528649999999,11.3451419,,OpcionesCERT,CERTIFICADOS / CERTIFIED,GF Social ESP/ITA/POR,GF Social ESP/ITA/POR
Prosciutteria Bacio Del Cimone,44.310586,10.7653046,,OpcionesCERT,CERTIFICADOS / CERTIFIED,GF Social ESP/ITA/POR,GF Social ESP/ITA/POR
Il Caffè della Corte Bistrot,44.4927028,11.3483513,,OpcionesCERT,CERTIFICADOS / CERTIFIED,GF Social ESP/ITA/POR,GF Social ESP/ITA/POR
902 Pizzeria da Asporto - TAKE AWAY,44.5960087,10.6945391,,OpcionesCERT,CERTIFICADOS / CERTIFIED,GF Social ESP/ITA/POR,GF Social ESP/ITA/POR
Ristorante Pizzeria Al Cavallino Bianco,44.4377022,11.3552542,,OpcionesCERT,CERTIFICADOS / CERTIFIED,GF Social ESP/ITA/POR,GF Social ESP/ITA/POR
Pizzeria Pantera Rosa,44.5076451,11.3589217,,OpcionesCERT,CERTIFICADOS / CERTIFIED,GF Social ESP/ITA/POR,GF Social ESP/ITA/POR
Napizz - Bologna,44.4795378,11.364163900000001,,OpcionesCERT,CERTIFICADOS / CERTIFIED,GF Social ESP/ITA/POR,GF Social ESP/ITA/POR
Caruso,44.4927271,11.3783702,,OpcionesCERT,CERTIFICADOS / CERTIFIED,GF Social ESP/ITA/POR,GF Social ESP/ITA/POR
BACLAS,44.4919117,11.3888189,,OpcionesCERT,CERTIFICADOS / CERTIFIED,GF Social ESP/ITA/POR,GF Social ESP/ITA/POR
La Corte dei Molini,44.57220969999999,11.3759818,,OpcionesCERT,CERTIFICADOS / CERTIFIED,GF Social ESP/ITA/POR,GF Social ESP/ITA/POR
Löwengrube,44.5060386,11.3957738,,OpcionesCERT,CERTIFICADOS / CERTIFIED,GF Social ESP/ITA/POR,GF Social ESP/ITA/POR
Villa San Donino - Ristorante,44.66632509999999,11.3077058,,OpcionesCERT,CERTIFICADOS / CERTIFIED,GF Social ESP/ITA/POR,GF Social ESP/ITA/POR
Pizza Express Number One - TAKE AWAY,44.4626617,11.4025657,,OpcionesCERT,CERTIFICADOS / CERTIFIED,GF Social ESP/ITA/POR,GF Social ESP/ITA/POR
C'è Pizza Per Te 2 - TAKE AWAY,44.5899613,11.36837,,OpcionesCERT,CERTIFICADOS / CERTIFIED,GF Social ESP/ITA/POR,GF Social ESP/ITA/POR
Gelateria Artigianale Cortina,44.7724596,10.8778215,,OpcionesCERT,CERTIFICADOS / CERTIFIED,GF Social ESP/ITA/POR,GF Social ESP/ITA/POR
Il Matterello dell'Oca,44.4597363,11.436824,,OpcionesCERT,CERTIFICADOS / CERTIFIED,GF Social ESP/ITA/POR,GF Social ESP/ITA/POR
Ristorante Curcuma,44.7796744,10.8808047,,OpcionesCERT,CERTIFICADOS / CERTIFIED,GF Social ESP/ITA/POR,GF Social ESP/ITA/POR
Da Marcello,44.7787027,10.8731781,,OpcionesCERT,CERTIFICADOS / CERTIFIED,GF Social ESP/ITA/POR,GF Social ESP/ITA/POR
Ristorante Pizzeria Minelli,44.7140808,11.298913,,OpcionesCERT,CERTIFICADOS / CERTIFIED,GF Social ESP/ITA/POR,GF Social ESP/ITA/POR
ristorante pizzeria Lo Chalet,44.20898889999999,10.7925493,,OpcionesCERT,CERTIFICADOS / CERTIFIED,GF Social ESP/ITA/POR,GF Social ESP/ITA/POR
Old Wild West,44.780863,10.866106,,OpcionesCERT,CERTIFICADOS / CERTIFIED,GF Social ESP/ITA/POR,GF Social ESP/ITA/POR
Il Fortino di Don Peppe - Ristorante Pizzeria Reggio Emilia,44.6857937,10.6669297,,OpcionesCERT,CERTIFICADOS / CERTIFIED,GF Social ESP/ITA/POR,GF Social ESP/ITA/POR
Ristorante La Grattugia,44.6425778,10.6205389,,OpcionesCERT,CERTIFICADOS / CERTIFIED,GF Social ESP/ITA/POR,GF Social ESP/ITA/POR
Pacifico,44.6744396,10.6362013,,OpcionesCERT,CERTIFICADOS / CERTIFIED,GF Social ESP/ITA/POR,GF Social ESP/ITA/POR
Il Delfino Pizzeria,44.7971465,10.8852325,,OpcionesCERT,CERTIFICADOS / CERTIFIED,GF Social ESP/ITA/POR,GF Social ESP/ITA/POR
Pizzeria 1975 - TAKE AWAY,44.7696095,10.7792339,,OpcionesCERT,CERTIFICADOS / CERTIFIED,GF Social ESP/ITA/POR,GF Social ESP/ITA/POR
Piedigrotta 2,44.6929935,10.6478764,,OpcionesCERT,CERTIFICADOS / CERTIFIED,GF Social ESP/ITA/POR,GF Social ESP/ITA/POR
"Pizzeria Ristorante ""La Pergola""",44.7658107,11.273453300000002,,OpcionesCERT,CERTIFICADOS / CERTIFIED,GF Social ESP/ITA/POR,GF Social ESP/ITA/POR
Old Wild West,44.6684576,10.5995643,,OpcionesCERT,CERTIFICADOS / CERTIFIED,GF Social ESP/ITA/POR,GF Social ESP/ITA/POR
Cucine clandestine,44.699844,10.6283222,,OpcionesCERT,CERTIFICADOS / CERTIFIED,GF Social ESP/ITA/POR,GF Social ESP/ITA/POR
IL Pomodorino di Barbagiovanni Gasparo Stefano e C.,44.6201629,10.5599069,,OpcionesCERT,CERTIFICADOS / CERTIFIED,GF Social ESP/ITA/POR,GF Social ESP/ITA/POR
Residence Il Mulinaccio,44.2098867,10.6202274,,OpcionesCERT,CERTIFICADOS / CERTIFIED,GF Social ESP/ITA/POR,GF Social ESP/ITA/POR
Ristorante Pizzeria Le Quattro Rose,44.8317871,11.1285581,,OpcionesCERT,CERTIFICADOS / CERTIFIED,GF Social ESP/ITA/POR,GF Social ESP/ITA/POR
Laboratorio Maninpasta,44.7088309,10.6120065,,OpcionesCERT,CERTIFICADOS / CERTIFIED,GF Social ESP/ITA/POR,GF Social ESP/ITA/POR
Rosa dei Venti,44.7120513,10.6036252,,OpcionesCERT,CERTIFICADOS / CERTIFIED,GF Social ESP/ITA/POR,GF Social ESP/ITA/POR
Pizzeria Almiro,44.4294588,11.5223021,,OpcionesCERT,CERTIFICADOS / CERTIFIED,GF Social ESP/ITA/POR,GF Social ESP/ITA/POR
Ai due fiumi,45.7578849,13.4682439,,OpcionesCERT,CERTIFICADOS / CERTIFIED,GF Social ESP/ITA/POR,GF Social ESP/ITA/POR
Lokanda Devetak 1870,45.8845586,13.5603791,,OpcionesCERT,CERTIFICADOS / CERTIFIED,GF Social ESP/ITA/POR,GF Social ESP/ITA/POR
Al Pellegrino,45.8923845,13.4998128,,OpcionesCERT,CERTIFICADOS / CERTIFIED,GF Social ESP/ITA/POR,GF Social ESP/ITA/POR
BEFED Brew Pub Fiumicello,45.7711219,13.4069938,,OpcionesCERT,CERTIFICADOS / CERTIFIED,GF Social ESP/ITA/POR,GF Social ESP/ITA/POR
Pasticceria Mosaico Aquileia,45.76919169999999,13.3699169,,OpcionesCERT,CERTIFICADOS / CERTIFIED,GF Social ESP/ITA/POR,GF Social ESP/ITA/POR
Cocambo,45.77167329999999,13.3682712,,OpcionesCERT,CERTIFICADOS / CERTIFIED,GF Social ESP/ITA/POR,GF Social ESP/ITA/POR
All'Anfora,45.7898033,13.3567378,,OpcionesCERT,CERTIFICADOS / CERTIFIED,GF Social ESP/ITA/POR,GF Social ESP/ITA/POR
Ristorante Pizzeria Chichibio @Cervignano Del Friuli,45.8306682,13.3333388,,OpcionesCERT,CERTIFICADOS / CERTIFIED,GF Social ESP/ITA/POR,GF Social ESP/ITA/POR
Pasticceria L'Oca Golosa,45.936127,13.610205,,OpcionesCERT,CERTIFICADOS / CERTIFIED,GF Social ESP/ITA/POR,GF Social ESP/ITA/POR
Mister Oregano,45.6796216,13.4298323,,OpcionesCERT,CERTIFICADOS / CERTIFIED,GF Social ESP/ITA/POR,GF Social ESP/ITA/POR
Iʟ Vᴏsᴛʀᴏ Eᴅᴇɴ,45.9505278,13.6167611,,OpcionesCERT,CERTIFICADOS / CERTIFIED,GF Social ESP/ITA/POR,GF Social ESP/ITA/POR
Ristorante pesce da franco | Grado,45.679061,13.402298,,OpcionesCERT,CERTIFICADOS / CERTIFIED,GF Social ESP/ITA/POR,GF Social ESP/ITA/POR
Al Lampione Gorizia,45.9501342,13.6279172,,OpcionesCERT,CERTIFICADOS / CERTIFIED,GF Social ESP/ITA/POR,GF Social ESP/ITA/POR
"Gelateria ""Ci Piace!""",45.675797,13.3882694,,OpcionesCERT,CERTIFICADOS / CERTIFIED,GF Social ESP/ITA/POR,GF Social ESP/ITA/POR
Il Melograno - Naturalmente Buono - Palmanova,45.9025574,13.3112459,,OpcionesCERT,CERTIFICADOS / CERTIFIED,GF Social ESP/ITA/POR,GF Social ESP/ITA/POR
Osteria Gostilna Koršič,45.9851038,13.5857599,,OpcionesCERT,CERTIFICADOS / CERTIFIED,GF Social ESP/ITA/POR,GF Social ESP/ITA/POR
A casa di Mimì,45.9575389,13.361529,,OpcionesCERT,CERTIFICADOS / CERTIFIED,GF Social ESP/ITA/POR,GF Social ESP/ITA/POR
Pizzeria Ristorante da Alfonso Sas,45.83215329999999,13.2106743,,OpcionesCERT,CERTIFICADOS / CERTIFIED,GF Social ESP/ITA/POR,GF Social ESP/ITA/POR
Rossopomodoro Trieste Cucina e Pizzeria Napoletana con Forno a Legna,45.6463616,13.7614021,,OpcionesCERT,CERTIFICADOS / CERTIFIED,GF Social ESP/ITA/POR,GF Social ESP/ITA/POR
Il Melograno - Naturalmente Buono - Trieste,45.6474592,13.7664368,,OpcionesCERT,CERTIFICADOS / CERTIFIED,GF Social ESP/ITA/POR,GF Social ESP/ITA/POR
Pasticceria da Ily,45.6534022,13.7794697,,OpcionesCERT,CERTIFICADOS / CERTIFIED,GF Social ESP/ITA/POR,GF Social ESP/ITA/POR
Hostaria G. Strehler,45.6522713,13.7838664,,OpcionesCERT,CERTIFICADOS / CERTIFIED,GF Social ESP/ITA/POR,GF Social ESP/ITA/POR
TNT Pub,45.65125479999999,13.7833938,,OpcionesCERT,CERTIFICADOS / CERTIFIED,GF Social ESP/ITA/POR,GF Social ESP/ITA/POR
Borgo dei Sapori di Irene Cencig - Agriturismo e Vino Biologico,46.0517691,13.454006,,OpcionesCERT,CERTIFICADOS / CERTIFIED,GF Social ESP/ITA/POR,GF Social ESP/ITA/POR
Agruiturismo Andronute Di Basello Tarcisio,45.9082585,13.1869633,,OpcionesCERT,CERTIFICADOS / CERTIFIED,GF Social ESP/ITA/POR,GF Social ESP/ITA/POR
Ristorante La Rucola,45.91562719999999,13.1807632,,OpcionesCERT,CERTIFICADOS / CERTIFIED,GF Social ESP/ITA/POR,GF Social ESP/ITA/POR
Old Wild West,46.02124750000001,13.2850232,,OpcionesCERT,CERTIFICADOS / CERTIFIED,GF Social ESP/ITA/POR,GF Social ESP/ITA/POR
Al Monastero,46.0942929,13.4299647,,OpcionesCERT,CERTIFICADOS / CERTIFIED,GF Social ESP/ITA/POR,GF Social ESP/ITA/POR
Ristorante Pizzeria Cellini,46.0849151,13.3700399,,OpcionesCERT,CERTIFICADOS / CERTIFIED,GF Social ESP/ITA/POR,GF Social ESP/ITA/POR
Ristorante Al Cardinale,46.0786476,13.303111,,OpcionesCERT,CERTIFICADOS / CERTIFIED,GF Social ESP/ITA/POR,GF Social ESP/ITA/POR
Ristorante Spagnolo La Paella,45.674073,13.1135358,,OpcionesCERT,CERTIFICADOS / CERTIFIED,GF Social ESP/ITA/POR,GF Social ESP/ITA/POR
Vineria La Botte,46.0638107,13.2372459,,OpcionesCERT,CERTIFICADOS / CERTIFIED,GF Social ESP/ITA/POR,GF Social ESP/ITA/POR
Pizzeria alle due palme,46.067967,13.2247053,,OpcionesCERT,CERTIFICADOS / CERTIFIED,GF Social ESP/ITA/POR,GF Social ESP/ITA/POR
All'ancona 2 Ristorante Pizzeria,46.08903550000001,13.2328594,,OpcionesCERT,CERTIFICADOS / CERTIFIED,GF Social ESP/ITA/POR,GF Social ESP/ITA/POR
Arcadia - Ristorante Pizzeria,46.1138296,13.2831366,,OpcionesCERT,CERTIFICADOS / CERTIFIED,GF Social ESP/ITA/POR,GF Social ESP/ITA/POR
Pizza 20e20,46.0951809,13.2307766,,OpcionesCERT,CERTIFICADOS / CERTIFIED,GF Social ESP/ITA/POR,GF Social ESP/ITA/POR
Old Wild West,46.1029022,13.228902500000002,,OpcionesCERT,CERTIFICADOS / CERTIFIED,GF Social ESP/ITA/POR,GF Social ESP/ITA/POR
Al Cercjeben,46.05173359999999,13.1440657,,OpcionesCERT,CERTIFICADOS / CERTIFIED,GF Social ESP/ITA/POR,GF Social ESP/ITA/POR
Il Melograno - Naturalmente Buono - Udine Nord,46.10995370000001,13.2284412,,OpcionesCERT,CERTIFICADOS / CERTIFIED,GF Social ESP/ITA/POR,GF Social ESP/ITA/POR
Spaghetti Haus,45.63680360000001,13.0582838,,OpcionesCERT,CERTIFICADOS / CERTIFIED,GF Social ESP/ITA/POR,GF Social ESP/ITA/POR
Pizza & Sfizio 2,45.777834,12.996659,,OpcionesCERT,CERTIFICADOS / CERTIFIED,GF Social ESP/ITA/POR,GF Social ESP/ITA/POR
Gelateria Gelidus,45.63581,13.0500655,,OpcionesCERT,CERTIFICADOS / CERTIFIED,GF Social ESP/ITA/POR,GF Social ESP/ITA/POR
Ristorante Al Villaggio,45.6359995,13.0367168,,OpcionesCERT,CERTIFICADOS / CERTIFIED,GF Social ESP/ITA/POR,GF Social ESP/ITA/POR
Il Glicine,46.16181539999999,13.2118864,,OpcionesCERT,CERTIFICADOS / CERTIFIED,GF Social ESP/ITA/POR,GF Social ESP/ITA/POR
Moby Dick,46.1446818,13.2204478,,OpcionesCERT,CERTIFICADOS / CERTIFIED,GF Social ESP/ITA/POR,GF Social ESP/ITA/POR
Trattoria Miculan,46.161032,13.216312,,OpcionesCERT,CERTIFICADOS / CERTIFIED,GF Social ESP/ITA/POR,GF Social ESP/ITA/POR
Mr. Smoky Drink&Grill,46.09962079999999,13.0957927,,OpcionesCERT,CERTIFICADOS / CERTIFIED,GF Social ESP/ITA/POR,GF Social ESP/ITA/POR
Fabbros' Pub Cassacco,46.1705327,13.1990594,,OpcionesCERT,CERTIFICADOS / CERTIFIED,GF Social ESP/ITA/POR,GF Social ESP/ITA/POR
Ristorante Al Castello,46.1154065,13.0934877,,OpcionesCERT,CERTIFICADOS / CERTIFIED,GF Social ESP/ITA/POR,GF Social ESP/ITA/POR
Casale Cjanor,46.1266667,13.0941667,,OpcionesCERT,CERTIFICADOS / CERTIFIED,GF Social ESP/ITA/POR,GF Social ESP/ITA/POR
Costantini,46.19307800000001,13.1955631,,OpcionesCERT,CERTIFICADOS / CERTIFIED,GF Social ESP/ITA/POR,GF Social ESP/ITA/POR
Gelateria Dolci Emozioni,45.8485004,12.8815905,,OpcionesCERT,CERTIFICADOS / CERTIFIED,GF Social ESP/ITA/POR,GF Social ESP/ITA/POR
Pizzeria La Pizzeria TAKE AWAY,45.76859689999999,12.835270300000001,,OpcionesCERT,CERTIFICADOS / CERTIFIED,GF Social ESP/ITA/POR,GF Social ESP/ITA/POR
Punto gelato _ gelateria naturale,45.60425,12.8904129,,OpcionesCERT,CERTIFICADOS / CERTIFIED,GF Social ESP/ITA/POR,GF Social ESP/ITA/POR
Gelateria La Galleria Caorle,45.59782420000001,12.8861052,,OpcionesCERT,CERTIFICADOS / CERTIFIED,GF Social ESP/ITA/POR,GF Social ESP/ITA/POR
Osteria Al Portonat,46.1616539,13.0125324,,OpcionesCERT,CERTIFICADOS / CERTIFIED,GF Social ESP/ITA/POR,GF Social ESP/ITA/POR
Agriturismo Al Tulin,46.25264139999999,13.181868,,OpcionesCERT,CERTIFICADOS / CERTIFIED,GF Social ESP/ITA/POR,GF Social ESP/ITA/POR
Trattoria Dal Piciul,46.2041069,13.0262556,,OpcionesCERT,CERTIFICADOS / CERTIFIED,GF Social ESP/ITA/POR,GF Social ESP/ITA/POR
Old Wild West,45.9443687,12.7237597,,OpcionesCERT,CERTIFICADOS / CERTIFIED,GF Social ESP/ITA/POR,GF Social ESP/ITA/POR
Gelateria Artigianale Dal Gelatiere,45.54784189999999,12.76234,,OpcionesCERT,CERTIFICADOS / CERTIFIED,GF Social ESP/ITA/POR,GF Social ESP/ITA/POR
America Graffiti,45.9537272,12.6846619,,OpcionesCERT,CERTIFICADOS / CERTIFIED,GF Social ESP/ITA/POR,GF Social ESP/ITA/POR
BEFED Brew Pub Pordenone,45.95732079999999,12.6624143,,OpcionesCERT,CERTIFICADOS / CERTIFIED,GF Social ESP/ITA/POR,GF Social ESP/ITA/POR
Il Mio Gelato,45.9585301,12.6601949,,OpcionesCERT,CERTIFICADOS / CERTIFIED,GF Social ESP/ITA/POR,GF Social ESP/ITA/POR
Ristorante Pizzeria Alla Catina,45.9587862,12.6586399,,OpcionesCERT,CERTIFICADOS / CERTIFIED,GF Social ESP/ITA/POR,GF Social ESP/ITA/POR
Pasticceria Gelateria Montereale,45.9661463,12.6531083,,OpcionesCERT,CERTIFICADOS / CERTIFIED,GF Social ESP/ITA/POR,GF Social ESP/ITA/POR
Ristorante da Guido,45.54330969999999,12.6506763,,OpcionesCERT,CERTIFICADOS / CERTIFIED,GF Social ESP/ITA/POR,GF Social ESP/ITA/POR
Cimarra 4 Pizzeria & Cocktail Bar (anche Senza Glutine),41.8961955,12.490666,,OpcionesCERT,CERTIFICADOS / CERTIFIED,GF Social ESP/ITA/POR,GF Social ESP/ITA/POR
La Gallina Bianca,41.89959,12.497563,,OpcionesCERT,CERTIFICADOS / CERTIFIED,GF Social ESP/ITA/POR,GF Social ESP/ITA/POR
Caffè Vergnano (Mychef rist. comm. S.p.A.),41.9014113,12.5028097,,OpcionesCERT,CERTIFICADOS / CERTIFIED,GF Social ESP/ITA/POR,GF Social ESP/ITA/POR
Pizza in Trevi,41.9006607,12.4835978,,OpcionesCERT,CERTIFICADOS / CERTIFIED,GF Social ESP/ITA/POR,GF Social ESP/ITA/POR
VyTA Santa Margherita,41.90181889999999,12.5025095,,OpcionesCERT,CERTIFICADOS / CERTIFIED,GF Social ESP/ITA/POR,GF Social ESP/ITA/POR
Pandalì,41.8971938,12.4764863,,OpcionesCERT,CERTIFICADOS / CERTIFIED,GF Social ESP/ITA/POR,GF Social ESP/ITA/POR
Pantha Rei,41.8984739,12.4777718,,OpcionesCERT,CERTIFICADOS / CERTIFIED,GF Social ESP/ITA/POR,GF Social ESP/ITA/POR
Mercato Hostaria Roma,41.8953644,12.4727122,,OpcionesCERT,CERTIFICADOS / CERTIFIED,GF Social ESP/ITA/POR,GF Social ESP/ITA/POR
Pasta in Corso Pantheon,41.9005211,12.4765981,,OpcionesCERT,CERTIFICADOS / CERTIFIED,GF Social ESP/ITA/POR,GF Social ESP/ITA/POR
La Piccola Cuccagna - Ristorante,41.8974529,12.4730828,,OpcionesCERT,CERTIFICADOS / CERTIFIED,GF Social ESP/ITA/POR,GF Social ESP/ITA/POR
Mama Eat Roma - Ristorante Pizzeria - Tutto anche senza glutine,41.888408,12.470576400000002,,OpcionesCERT,CERTIFICADOS / CERTIFIED,GF Social ESP/ITA/POR,GF Social ESP/ITA/POR
Ristorante Pizzeria Il Veliero,41.8796962,12.5130391,,OpcionesCERT,CERTIFICADOS / CERTIFIED,GF Social ESP/ITA/POR,GF Social ESP/ITA/POR
Ciao Checca,41.9021912,12.4758043,,OpcionesCERT,CERTIFICADOS / CERTIFIED,GF Social ESP/ITA/POR,GF Social ESP/ITA/POR
Veghometro - Ristorante Vegano,41.8714833,12.4792126,,OpcionesCERT,CERTIFICADOS / CERTIFIED,GF Social ESP/ITA/POR,GF Social ESP/ITA/POR
Pasta In Corso,41.8988102,12.4676379,,OpcionesCERT,CERTIFICADOS / CERTIFIED,GF Social ESP/ITA/POR,GF Social ESP/ITA/POR
Fata Morgana,45.40003189999999,8.9165227,,OpcionesCERT,CERTIFICADOS / CERTIFIED,GF Social ESP/ITA/POR,GF Social ESP/ITA/POR
Écru,41.89993010000001,12.4645976,,OpcionesCERT,CERTIFICADOS / CERTIFIED,GF Social ESP/ITA/POR,GF Social ESP/ITA/POR
Gelateria Petrini,41.8763084,12.5214386,,OpcionesCERT,CERTIFICADOS / CERTIFIED,GF Social ESP/ITA/POR,GF Social ESP/ITA/POR
Il secchio e l'olivaro,41.8598313,12.4961454,,OpcionesCERT,CERTIFICADOS / CERTIFIED,GF Social ESP/ITA/POR,GF Social ESP/ITA/POR
La Soffitta Renovatio,41.90591,12.4590061,,OpcionesCERT,CERTIFICADOS / CERTIFIED,GF Social ESP/ITA/POR,GF Social ESP/ITA/POR
Ristorante Mangiafuoco Pizza&Grill,41.9222443,12.5046445,,OpcionesCERT,CERTIFICADOS / CERTIFIED,GF Social ESP/ITA/POR,GF Social ESP/ITA/POR
Il Bello della Pizza,41.9035774,12.5365565,,OpcionesCERT,CERTIFICADOS / CERTIFIED,GF Social ESP/ITA/POR,GF Social ESP/ITA/POR
ALTERNATIVO restaurant & lounge bar,41.9035197,12.5365311,,OpcionesCERT,CERTIFICADOS / CERTIFIED,GF Social ESP/ITA/POR,GF Social ESP/ITA/POR
Antico Casale la Carovana,41.8641969,12.4592423,,OpcionesCERT,CERTIFICADOS / CERTIFIED,GF Social ESP/ITA/POR,GF Social ESP/ITA/POR
Da Vittorio a Portuense,41.8606408,12.452403100000002,,OpcionesCERT,CERTIFICADOS / CERTIFIED,GF Social ESP/ITA/POR,GF Social ESP/ITA/POR
Al Country,41.8896013,12.5504646,,OpcionesCERT,CERTIFICADOS / CERTIFIED,GF Social ESP/ITA/POR,GF Social ESP/ITA/POR
Potter Pizza,41.865522,12.4437153,,OpcionesCERT,CERTIFICADOS / CERTIFIED,GF Social ESP/ITA/POR,GF Social ESP/ITA/POR
Pizzeria-Ristorante Il Cavaliere,41.85500170000001,12.4510133,,OpcionesCERT,CERTIFICADOS / CERTIFIED,GF Social ESP/ITA/POR,GF Social ESP/ITA/POR
O' Masto Roma,41.8422258,12.4863912,,OpcionesCERT,CERTIFICADOS / CERTIFIED,GF Social ESP/ITA/POR,GF Social ESP/ITA/POR
Ristorante Arturo,41.8898597,12.4255448,,OpcionesCERT,CERTIFICADOS / CERTIFIED,GF Social ESP/ITA/POR,GF Social ESP/ITA/POR
Mama Eat - Roma Ponte Milvio - Ristorante Gluten Free,41.93726849999999,12.4674594,,OpcionesCERT,CERTIFICADOS / CERTIFIED,GF Social ESP/ITA/POR,GF Social ESP/ITA/POR
Ristorante La Nduja Due,41.89294020000001,12.5647808,,OpcionesCERT,CERTIFICADOS / CERTIFIED,GF Social ESP/ITA/POR,GF Social ESP/ITA/POR
Lievito72,41.9146744,12.4207693,,OpcionesCERT,CERTIFICADOS / CERTIFIED,GF Social ESP/ITA/POR,GF Social ESP/ITA/POR
Manforte,41.9369595,12.5481632,,OpcionesCERT,CERTIFICADOS / CERTIFIED,GF Social ESP/ITA/POR,GF Social ESP/ITA/POR
Fornerie Alessandrino,41.876075,12.5788948,,OpcionesCERT,CERTIFICADOS / CERTIFIED,GF Social ESP/ITA/POR,GF Social ESP/ITA/POR
FARINA E BRACE,41.94689390000001,12.5390006,,OpcionesCERT,CERTIFICADOS / CERTIFIED,GF Social ESP/ITA/POR,GF Social ESP/ITA/POR
America Graffiti,41.8406865,12.5520659,,OpcionesCERT,CERTIFICADOS / CERTIFIED,GF Social ESP/ITA/POR,GF Social ESP/ITA/POR
"Gelateria Prenestina Roma La ""ZUCCA MAGICA""",41.8913649,12.5851193,,OpcionesCERT,CERTIFICADOS / CERTIFIED,GF Social ESP/ITA/POR,GF Social ESP/ITA/POR
Millennium Center,41.8702888,12.5877466,,OpcionesCERT,CERTIFICADOS / CERTIFIED,GF Social ESP/ITA/POR,GF Social ESP/ITA/POR
Straforno,41.9451178,12.5681962,,OpcionesCERT,CERTIFICADOS / CERTIFIED,GF Social ESP/ITA/POR,GF Social ESP/ITA/POR
Junior Pizza Chef Gluten Free Roma,41.9391098,12.5781278,,OpcionesCERT,CERTIFICADOS / CERTIFIED,GF Social ESP/ITA/POR,GF Social ESP/ITA/POR
Acqua e Grano,41.8162175,12.4438598,,OpcionesCERT,CERTIFICADOS / CERTIFIED,GF Social ESP/ITA/POR,GF Social ESP/ITA/POR
Il Punto - Ristorante Pizzeria Gluten Free Friendly,41.8327812,12.5994458,,OpcionesCERT,CERTIFICADOS / CERTIFIED,GF Social ESP/ITA/POR,GF Social ESP/ITA/POR
Pizzeria Bisteccheria Triticum,41.923112,12.3707065,,OpcionesCERT,CERTIFICADOS / CERTIFIED,GF Social ESP/ITA/POR,GF Social ESP/ITA/POR
La Tana dei Ricci - Ristorante e Pub,41.7907803,12.4534254,,OpcionesCERT,CERTIFICADOS / CERTIFIED,GF Social ESP/ITA/POR,GF Social ESP/ITA/POR
"Ristorante ""Roma in Bocca""",41.8426681,12.6232463,,OpcionesCERT,CERTIFICADOS / CERTIFIED,GF Social ESP/ITA/POR,GF Social ESP/ITA/POR
Al Setaccio,41.7858242,12.4319763,,OpcionesCERT,CERTIFICADOS / CERTIFIED,GF Social ESP/ITA/POR,GF Social ESP/ITA/POR
MyChef Salaria East,42.0044974,12.5291753,,OpcionesCERT,CERTIFICADOS / CERTIFIED,GF Social ESP/ITA/POR,GF Social ESP/ITA/POR
Osteria 29,41.7880277,12.3943525,,OpcionesCERT,CERTIFICADOS / CERTIFIED,GF Social ESP/ITA/POR,GF Social ESP/ITA/POR
Pizza Pazza di Imperatori Graziella,41.9531574,12.6525254,,OpcionesCERT,CERTIFICADOS / CERTIFIED,GF Social ESP/ITA/POR,GF Social ESP/ITA/POR
Pizzeria Fantasie di Napoli,41.917052299999995,12.6838833,,OpcionesCERT,CERTIFICADOS / CERTIFIED,GF Social ESP/ITA/POR,GF Social ESP/ITA/POR
Osteria Volsci,41.6226879,13.3206965,,OpcionesCERT,CERTIFICADOS / CERTIFIED,GF Social ESP/ITA/POR,GF Social ESP/ITA/POR
La Regina Margherita,41.6226006,13.3341898,,OpcionesCERT,CERTIFICADOS / CERTIFIED,GF Social ESP/ITA/POR,GF Social ESP/ITA/POR
La Trattoria,41.62010220000001,13.3184477,,OpcionesCERT,CERTIFICADOS / CERTIFIED,GF Social ESP/ITA/POR,GF Social ESP/ITA/POR
Albatros Ristorante Pizzeria,41.5977578,13.329457100000003,,OpcionesCERT,CERTIFICADOS / CERTIFIED,GF Social ESP/ITA/POR,GF Social ESP/ITA/POR
Antica Roma,41.5920182,13.3700667,,OpcionesCERT,CERTIFICADOS / CERTIFIED,GF Social ESP/ITA/POR,GF Social ESP/ITA/POR
Whatsapp Gelateria,41.5741376,13.3371208,,OpcionesCERT,CERTIFICADOS / CERTIFIED,GF Social ESP/ITA/POR,GF Social ESP/ITA/POR
Calzoneria Planet Garden,41.686288,13.257161100000001,,OpcionesCERT,CERTIFICADOS / CERTIFIED,GF Social ESP/ITA/POR,GF Social ESP/ITA/POR
Pescheria Mare Vivo,41.68356630000001,13.2571835,,OpcionesCERT,CERTIFICADOS / CERTIFIED,GF Social ESP/ITA/POR,GF Social ESP/ITA/POR
Il Giardino dal 1977 Pizzeria Ristorante,41.6864043,13.2564414,,OpcionesCERT,CERTIFICADOS / CERTIFIED,GF Social ESP/ITA/POR,GF Social ESP/ITA/POR
Ristorante Pizzeria La Baita,41.77698669999999,13.226491,,OpcionesCERT,CERTIFICADOS / CERTIFIED,GF Social ESP/ITA/POR,GF Social ESP/ITA/POR
Luppolo e Farina from On The Road Since 1980,41.6796051,13.5700937,,OpcionesCERT,CERTIFICADOS / CERTIFIED,GF Social ESP/ITA/POR,GF Social ESP/ITA/POR
Ristorante Pizzeria Forum,41.783902,13.2257121,,OpcionesCERT,CERTIFICADOS / CERTIFIED,GF Social ESP/ITA/POR,GF Social ESP/ITA/POR
Autogrill La Macchia Ovest,41.6856294,13.1875117,,OpcionesCERT,CERTIFICADOS / CERTIFIED,GF Social ESP/ITA/POR,GF Social ESP/ITA/POR
Granaio,41.7079449,13.5960014,,OpcionesCERT,CERTIFICADOS / CERTIFIED,GF Social ESP/ITA/POR,GF Social ESP/ITA/POR
La Rupe Dei 7 Venti,41.6028756,13.093915000000003,,OpcionesCERT,CERTIFICADOS / CERTIFIED,GF Social ESP/ITA/POR,GF Social ESP/ITA/POR
Osteria New York,41.70123660000001,13.6436411,,OpcionesCERT,CERTIFICADOS / CERTIFIED,GF Social ESP/ITA/POR,GF Social ESP/ITA/POR
Festeggiocando,41.4335506,13.1951943,,OpcionesCERT,CERTIFICADOS / CERTIFIED,GF Social ESP/ITA/POR,GF Social ESP/ITA/POR
Civico 90,41.7221364,13.0113648,,OpcionesCERT,CERTIFICADOS / CERTIFIED,GF Social ESP/ITA/POR,GF Social ESP/ITA/POR
Belsito,41.8402205,13.0984484,,OpcionesCERT,CERTIFICADOS / CERTIFIED,GF Social ESP/ITA/POR,GF Social ESP/ITA/POR
Autogrill Casilina Ovest,41.49666020000001,13.6832171,,OpcionesCERT,CERTIFICADOS / CERTIFIED,GF Social ESP/ITA/POR,GF Social ESP/ITA/POR
Ristorante L'Arca,41.39346659999999,13.1546368,,OpcionesCERT,CERTIFICADOS / CERTIFIED,GF Social ESP/ITA/POR,GF Social ESP/ITA/POR
Agriturismo - La Valle dell'Usignolo,41.5575354,12.98001,,OpcionesCERT,CERTIFICADOS / CERTIFIED,GF Social ESP/ITA/POR,GF Social ESP/ITA/POR
Da Massimo al Ponte,41.6874771,12.8734102,,OpcionesCERT,CERTIFICADOS / CERTIFIED,GF Social ESP/ITA/POR,GF Social ESP/ITA/POR
Pizzeria Cozzolino,42.0178451,13.4281492,,OpcionesCERT,CERTIFICADOS / CERTIFIED,GF Social ESP/ITA/POR,GF Social ESP/ITA/POR
L'Euro,41.4432296,12.9092378,,OpcionesCERT,CERTIFICADOS / CERTIFIED,GF Social ESP/ITA/POR,GF Social ESP/ITA/POR
Al Primo Piano,41.4659472,12.8873196,,OpcionesCERT,CERTIFICADOS / CERTIFIED,GF Social ESP/ITA/POR,GF Social ESP/ITA/POR
Punto Snack di Marino Pia,41.4576394,12.8890507,,OpcionesCERT,CERTIFICADOS / CERTIFIED,GF Social ESP/ITA/POR,GF Social ESP/ITA/POR
MAMMA MIA,41.4899637,13.8317641,,OpcionesCERT,CERTIFICADOS / CERTIFIED,GF Social ESP/ITA/POR,GF Social ESP/ITA/POR
Umami Restaurant Cafè,42.03214080000001,13.4276356,,OpcionesCERT,CERTIFICADOS / CERTIFIED,GF Social ESP/ITA/POR,GF Social ESP/ITA/POR
Bar Olimpia,42.0353889,13.4256153,,OpcionesCERT,CERTIFICADOS / CERTIFIED,GF Social ESP/ITA/POR,GF Social ESP/ITA/POR
Gelateria Duomo Il Paradiso del Gelato,42.0355806,13.4262201,,OpcionesCERT,CERTIFICADOS / CERTIFIED,GF Social ESP/ITA/POR,GF Social ESP/ITA/POR
Fattoria Prato di Coppola,41.4265899,12.8847732,,OpcionesCERT,CERTIFICADOS / CERTIFIED,GF Social ESP/ITA/POR,GF Social ESP/ITA/POR
Ristorante Il Funghetto,41.3920895,12.945507900000003,,OpcionesCERT,CERTIFICADOS / CERTIFIED,GF Social ESP/ITA/POR,GF Social ESP/ITA/POR
Ristorante Il Gazebo,41.235801,13.4901987,,OpcionesCERT,CERTIFICADOS / CERTIFIED,GF Social ESP/ITA/POR,GF Social ESP/ITA/POR
Old Wild West,41.6862347,12.782414500000002,,OpcionesCERT,CERTIFICADOS / CERTIFIED,GF Social ESP/ITA/POR,GF Social ESP/ITA/POR
La Forbice S.r.l.,41.6833519,12.7757183,,OpcionesCERT,CERTIFICADOS / CERTIFIED,GF Social ESP/ITA/POR,GF Social ESP/ITA/POR
Old Wild West Gaeta,41.2308957,13.5673024,,OpcionesCERT,CERTIFICADOS / CERTIFIED,GF Social ESP/ITA/POR,GF Social ESP/ITA/POR
Old Wild West,41.26657,13.6718426,,OpcionesCERT,CERTIFICADOS / CERTIFIED,GF Social ESP/ITA/POR,GF Social ESP/ITA/POR
"Pizzeria Maurizi ""Peter Pan""",42.09181109999999,13.3647397,,OpcionesCERT,CERTIFICADOS / CERTIFIED,GF Social ESP/ITA/POR,GF Social ESP/ITA/POR
Der Keller Pub,41.278773,13.7113146,,OpcionesCERT,CERTIFICADOS / CERTIFIED,GF Social ESP/ITA/POR,GF Social ESP/ITA/POR
Ristorante Il Follaro,41.2131271,13.5768369,,OpcionesCERT,CERTIFICADOS / CERTIFIED,GF Social ESP/ITA/POR,GF Social ESP/ITA/POR
Le Mirage,42.0792627,13.549977800000002,,OpcionesCERT,CERTIFICADOS / CERTIFIED,GF Social ESP/ITA/POR,GF Social ESP/ITA/POR
Ristorante Cittadella,42.08390709999999,13.5461855,,OpcionesCERT,CERTIFICADOS / CERTIFIED,GF Social ESP/ITA/POR,GF Social ESP/ITA/POR
Autogrill Prenestina Est,41.8914925,12.7594371,,OpcionesCERT,CERTIFICADOS / CERTIFIED,GF Social ESP/ITA/POR,GF Social ESP/ITA/POR
Autogrill Prenestina West,41.8890401,12.7586127,,OpcionesCERT,CERTIFICADOS / CERTIFIED,GF Social ESP/ITA/POR,GF Social ESP/ITA/POR
PAUSE - Beer Restaurant & Burger House,41.8323579,12.7516024,,OpcionesCERT,CERTIFICADOS / CERTIFIED,GF Social ESP/ITA/POR,GF Social ESP/ITA/POR
Piazza Margherita,41.7060292,12.6918589,,OpcionesCERT,CERTIFICADOS / CERTIFIED,GF Social ESP/ITA/POR,GF Social ESP/ITA/POR
Trattoria dei Cacciatori,41.7066994,12.6918402,,OpcionesCERT,CERTIFICADOS / CERTIFIED,GF Social ESP/ITA/POR,GF Social ESP/ITA/POR
Sesta bar,41.7298406,12.6573145,,OpcionesCERT,CERTIFICADOS / CERTIFIED,GF Social ESP/ITA/POR,GF Social ESP/ITA/POR
I 2 Sapori,41.7307554,12.6570756,,OpcionesCERT,CERTIFICADOS / CERTIFIED,GF Social ESP/ITA/POR,GF Social ESP/ITA/POR
Ristorante Pizzeria L'Agrifoglio,42.0102789,12.8402762,,OpcionesCERT,CERTIFICADOS / CERTIFIED,GF Social ESP/ITA/POR,GF Social ESP/ITA/POR
"bio_aprilia, senza glutine e vegano",41.5908623,12.6440392,,OpcionesCERT,CERTIFICADOS / CERTIFIED,GF Social ESP/ITA/POR,GF Social ESP/ITA/POR
FORGIONE RISTORANTE PIZZERIA,41.7692056,12.6587623,,OpcionesCERT,CERTIFICADOS / CERTIFIED,GF Social ESP/ITA/POR,GF Social ESP/ITA/POR
Brothers Food & Drink - Ristorante - Pizzeria,41.1957075,13.8073705,,OpcionesCERT,CERTIFICADOS / CERTIFIED,GF Social ESP/ITA/POR,GF Social ESP/ITA/POR
Agriturismo Costantini,41.6281925,14.0898235,,OpcionesCERT,CERTIFICADOS / CERTIFIED,GF Social ESP/ITA/POR,GF Social ESP/ITA/POR
Pizzeria L'Oasi,41.588506,12.6054169,,OpcionesCERT,CERTIFICADOS / CERTIFIED,GF Social ESP/ITA/POR,GF Social ESP/ITA/POR
Brothers pizza,41.1937294,13.8086137,,OpcionesCERT,CERTIFICADOS / CERTIFIED,GF Social ESP/ITA/POR,GF Social ESP/ITA/POR
Breezy Gelateria,41.5008327,12.6138547,,OpcionesCERT,CERTIFICADOS / CERTIFIED,GF Social ESP/ITA/POR,GF Social ESP/ITA/POR
La Fornace Anzio,41.4765676,12.620782300000002,,OpcionesCERT,CERTIFICADOS / CERTIFIED,GF Social ESP/ITA/POR,GF Social ESP/ITA/POR
Antico Grottino - Pizzeria Bisteccheria Anzio,41.4479455,12.625980200000003,,OpcionesCERT,CERTIFICADOS / CERTIFIED,GF Social ESP/ITA/POR,GF Social ESP/ITA/POR
Ristorante Pizzeria la Domiziana,41.1951167,13.8402799,,OpcionesCERT,CERTIFICADOS / CERTIFIED,GF Social ESP/ITA/POR,GF Social ESP/ITA/POR
Old Wild West,41.9827081,12.7137365,,OpcionesCERT,CERTIFICADOS / CERTIFIED,GF Social ESP/ITA/POR,GF Social ESP/ITA/POR
Ristorante Pizzeria Vineria La Fattoria,41.8401672,14.0905945,,OpcionesCERT,CERTIFICADOS / CERTIFIED,GF Social ESP/ITA/POR,GF Social ESP/ITA/POR
Da Roberto Al Follia,41.5091285,12.5825557,,OpcionesCERT,CERTIFICADOS / CERTIFIED,GF Social ESP/ITA/POR,GF Social ESP/ITA/POR
Il Giardinetto Del Volturno Taverna Ravindola,41.5208336,14.1309976,,OpcionesCERT,CERTIFICADOS / CERTIFIED,GF Social ESP/ITA/POR,GF Social ESP/ITA/POR
Altrocheimpasto - TAKE AWAY,41.6103755,12.546391,,OpcionesCERT,CERTIFICADOS / CERTIFIED,GF Social ESP/ITA/POR,GF Social ESP/ITA/POR
Ristorante Pizzeria Cintia,42.40257469999999,12.8596272,,OpcionesCERT,CERTIFICADOS / CERTIFIED,GF Social ESP/ITA/POR,GF Social ESP/ITA/POR
Ristorante Il Coccio,42.401066,12.856205,,OpcionesCERT,CERTIFICADOS / CERTIFIED,GF Social ESP/ITA/POR,GF Social ESP/ITA/POR
La Locanda del Carro,42.40238979999999,12.8622634,,OpcionesCERT,CERTIFICADOS / CERTIFIED,GF Social ESP/ITA/POR,GF Social ESP/ITA/POR
"Crystal pastries, ice cream, Café, Delicatessen",42.40566799999999,12.850947,,OpcionesCERT,CERTIFICADOS / CERTIFIED,GF Social ESP/ITA/POR,GF Social ESP/ITA/POR
La Corte Ristorante,42.4041384,12.8644286,,OpcionesCERT,CERTIFICADOS / CERTIFIED,GF Social ESP/ITA/POR,GF Social ESP/ITA/POR
Ristorante Pizzeria Sole e Luna,42.4238906,12.8278744,,OpcionesCERT,CERTIFICADOS / CERTIFIED,GF Social ESP/ITA/POR,GF Social ESP/ITA/POR
The Forest Restaurant,42.43470320000001,12.8878671,,OpcionesCERT,CERTIFICADOS / CERTIFIED,GF Social ESP/ITA/POR,GF Social ESP/ITA/POR
Hotel Ristorante Da Valerio C.V.M. Soc. Coop.,42.40653569999999,12.9238744,,OpcionesCERT,CERTIFICADOS / CERTIFIED,GF Social ESP/ITA/POR,GF Social ESP/ITA/POR
Ristorante Al Bersagliere Da Gualtiero,42.3696365,12.809657,,OpcionesCERT,CERTIFICADOS / CERTIFIED,GF Social ESP/ITA/POR,GF Social ESP/ITA/POR
Vecchia Osteria,42.5341118,12.7805495,,OpcionesCERT,CERTIFICADOS / CERTIFIED,GF Social ESP/ITA/POR,GF Social ESP/ITA/POR
Peter Pan 2 Ristorante Pizzeria,42.2652747,12.6847685,,OpcionesCERT,CERTIFICADOS / CERTIFIED,GF Social ESP/ITA/POR,GF Social ESP/ITA/POR
La Taverna del Tiranno,42.21726899999999,12.819263,,OpcionesCERT,CERTIFICADOS / CERTIFIED,GF Social ESP/ITA/POR,GF Social ESP/ITA/POR
Gelateria Andrea,42.5628242,12.6479888,,OpcionesCERT,CERTIFICADOS / CERTIFIED,GF Social ESP/ITA/POR,GF Social ESP/ITA/POR
Mio Bio,42.562507,12.6466777,,OpcionesCERT,CERTIFICADOS / CERTIFIED,GF Social ESP/ITA/POR,GF Social ESP/ITA/POR
Ristorante Pantarhei,42.5623958,12.6453308,,OpcionesCERT,CERTIFICADOS / CERTIFIED,GF Social ESP/ITA/POR,GF Social ESP/ITA/POR
Da Ale,42.5629094,12.6453853,,OpcionesCERT,CERTIFICADOS / CERTIFIED,GF Social ESP/ITA/POR,GF Social ESP/ITA/POR
Le Macine,42.5723948,12.6578746,,OpcionesCERT,CERTIFICADOS / CERTIFIED,GF Social ESP/ITA/POR,GF Social ESP/ITA/POR
Il Pozzo Country House,42.5221168,12.6296299,,OpcionesCERT,CERTIFICADOS / CERTIFIED,GF Social ESP/ITA/POR,GF Social ESP/ITA/POR
Caffè del Corso,42.5632854,12.6478821,,OpcionesCERT,CERTIFICADOS / CERTIFIED,GF Social ESP/ITA/POR,GF Social ESP/ITA/POR
La Clessidra,42.5640833,12.6423344,,OpcionesCERT,CERTIFICADOS / CERTIFIED,GF Social ESP/ITA/POR,GF Social ESP/ITA/POR
Poscargano Cibo e ospitalità dal 1890,42.5400271,12.6133354,,OpcionesCERT,CERTIFICADOS / CERTIFIED,GF Social ESP/ITA/POR,GF Social ESP/ITA/POR
Livingstone,42.565,12.6505556,,OpcionesCERT,CERTIFICADOS / CERTIFIED,GF Social ESP/ITA/POR,GF Social ESP/ITA/POR
Lu Somaru,42.56841789999999,12.6379026,,OpcionesCERT,CERTIFICADOS / CERTIFIED,GF Social ESP/ITA/POR,GF Social ESP/ITA/POR
Antica Pasticceria dell'Artista,42.5691877,12.6350918,,OpcionesCERT,CERTIFICADOS / CERTIFIED,GF Social ESP/ITA/POR,GF Social ESP/ITA/POR
Old Wild West,42.5714359,12.636046,,OpcionesCERT,CERTIFICADOS / CERTIFIED,GF Social ESP/ITA/POR,GF Social ESP/ITA/POR
Ristorante Ai Tre Archi,42.6461313,12.8248641,,OpcionesCERT,CERTIFICADOS / CERTIFIED,GF Social ESP/ITA/POR,GF Social ESP/ITA/POR
Le Delizie di Deby di Deborah Ricci,42.58951279999999,12.6028683,,OpcionesCERT,CERTIFICADOS / CERTIFIED,GF Social ESP/ITA/POR,GF Social ESP/ITA/POR
Grano e Sale,42.5201144,12.528686500000001,,OpcionesCERT,CERTIFICADOS / CERTIFIED,GF Social ESP/ITA/POR,GF Social ESP/ITA/POR
Il Parco dei Cavalieri,42.5309945,12.5619179,,OpcionesCERT,CERTIFICADOS / CERTIFIED,GF Social ESP/ITA/POR,GF Social ESP/ITA/POR
Ristorante Trattoria Il Capanno,42.66496759999999,12.7342333,,OpcionesCERT,CERTIFICADOS / CERTIFIED,GF Social ESP/ITA/POR,GF Social ESP/ITA/POR
Bar San.Pa Meeting Coffee,42.608315,12.544929,,OpcionesCERT,CERTIFICADOS / CERTIFIED,GF Social ESP/ITA/POR,GF Social ESP/ITA/POR
Caffè Paretti,42.6121468,12.5460184,,OpcionesCERT,CERTIFICADOS / CERTIFIED,GF Social ESP/ITA/POR,GF Social ESP/ITA/POR
Ristorante Borgo Incantato,42.7008564,12.705743,,OpcionesCERT,CERTIFICADOS / CERTIFIED,GF Social ESP/ITA/POR,GF Social ESP/ITA/POR
Pizzeria La Ginestra,42.704435,12.715024,,OpcionesCERT,CERTIFICADOS / CERTIFIED,GF Social ESP/ITA/POR,GF Social ESP/ITA/POR
La Taberna,42.71811040000001,13.0132662,,OpcionesCERT,CERTIFICADOS / CERTIFIED,GF Social ESP/ITA/POR,GF Social ESP/ITA/POR
La Lanterna,42.7335557,12.7361431,,OpcionesCERT,CERTIFICADOS / CERTIFIED,GF Social ESP/ITA/POR,GF Social ESP/ITA/POR
Ristorante Del Mercato,42.733984,12.73738,,OpcionesCERT,CERTIFICADOS / CERTIFIED,GF Social ESP/ITA/POR,GF Social ESP/ITA/POR
Ristorante San Lorenzo,42.73429549999999,12.7347328,,OpcionesCERT,CERTIFICADOS / CERTIFIED,GF Social ESP/ITA/POR,GF Social ESP/ITA/POR
La Fattoria Hotel-Ristorante-Pizzeria,42.72764619999999,12.679592,,OpcionesCERT,CERTIFICADOS / CERTIFIED,GF Social ESP/ITA/POR,GF Social ESP/ITA/POR
Ristorante Scoglio Dell'Aquilone Srl,42.5568618,12.40592,,OpcionesCERT,CERTIFICADOS / CERTIFIED,GF Social ESP/ITA/POR,GF Social ESP/ITA/POR
Relais Dei Principi,42.6579704,12.5313425,,OpcionesCERT,CERTIFICADOS / CERTIFIED,GF Social ESP/ITA/POR,GF Social ESP/ITA/POR
L'isola Che Non C'era,42.367402,13.3564992,,OpcionesCERT,CERTIFICADOS / CERTIFIED,GF Social ESP/ITA/POR,GF Social ESP/ITA/POR
Ristorante Pizzeria Baldassari,42.75114480000001,13.0489093,,OpcionesCERT,CERTIFICADOS / CERTIFIED,GF Social ESP/ITA/POR,GF Social ESP/ITA/POR
Old Wild West,42.3583573,13.3670728,,OpcionesCERT,CERTIFICADOS / CERTIFIED,GF Social ESP/ITA/POR,GF Social ESP/ITA/POR
"Maculato Pizza, Cucina e Grill",42.05541840000001,12.6311783,,OpcionesCERT,CERTIFICADOS / CERTIFIED,GF Social ESP/ITA/POR,GF Social ESP/ITA/POR
Agriturismo - La Tenuta dei Ciclamini • Relais Nature,42.65832090000001,12.3651469,,OpcionesCERT,CERTIFICADOS / CERTIFIED,GF Social ESP/ITA/POR,GF Social ESP/ITA/POR
Osteria Belvedere,42.4671219,12.3149816,,OpcionesCERT,CERTIFICADOS / CERTIFIED,GF Social ESP/ITA/POR,GF Social ESP/ITA/POR
Food Free,42.3526923,13.401768,,OpcionesCERT,CERTIFICADOS / CERTIFIED,GF Social ESP/ITA/POR,GF Social ESP/ITA/POR
Agriturismo - Borgo della Marmotta Farm Resort & Restaurant,42.8079881,12.7842153,,OpcionesCERT,CERTIFICADOS / CERTIFIED,GF Social ESP/ITA/POR,GF Social ESP/ITA/POR
Locanda Rovicciano Ristorante country house,42.82423000000001,12.6644268,,OpcionesCERT,CERTIFICADOS / CERTIFIED,GF Social ESP/ITA/POR,GF Social ESP/ITA/POR
Bar Jolly Di Bernardo Carmine,42.7757585,12.5261224,,OpcionesCERT,CERTIFICADOS / CERTIFIED,GF Social ESP/ITA/POR,GF Social ESP/ITA/POR
Il Quadrifoglio,42.4797222,12.2527778,,OpcionesCERT,CERTIFICADOS / CERTIFIED,GF Social ESP/ITA/POR,GF Social ESP/ITA/POR
La Piramide Hostaria Pizzeria,42.4795646,12.2524867,,OpcionesCERT,CERTIFICADOS / CERTIFIED,GF Social ESP/ITA/POR,GF Social ESP/ITA/POR
Pizzeria Pozzo Beccaro,42.7783355,12.4058151,,OpcionesCERT,CERTIFICADOS / CERTIFIED,GF Social ESP/ITA/POR,GF Social ESP/ITA/POR
Le Scalette,42.7810897,12.4049215,,OpcionesCERT,CERTIFICADOS / CERTIFIED,GF Social ESP/ITA/POR,GF Social ESP/ITA/POR
Enoteca L'Alchimista,42.8936111,12.6530556,,OpcionesCERT,CERTIFICADOS / CERTIFIED,GF Social ESP/ITA/POR,GF Social ESP/ITA/POR
MenteLocale Foligno Ristorante Pizzeria Bar,42.91051480000001,12.7279911,,OpcionesCERT,CERTIFICADOS / CERTIFIED,GF Social ESP/ITA/POR,GF Social ESP/ITA/POR
Osteria Sammartinese da Saverio,42.3676792,12.1272209,,OpcionesCERT,CERTIFICADOS / CERTIFIED,GF Social ESP/ITA/POR,GF Social ESP/ITA/POR
Ristorante Il Buongustaio,42.8645316,12.4722471,,OpcionesCERT,CERTIFICADOS / CERTIFIED,GF Social ESP/ITA/POR,GF Social ESP/ITA/POR
La Ballaccia,42.3687984,12.1256405,,OpcionesCERT,CERTIFICADOS / CERTIFIED,GF Social ESP/ITA/POR,GF Social ESP/ITA/POR
Tavernetta Il Cavaliere - Pizzeria ristorante Viterbo,42.3697814,12.1251735,,OpcionesCERT,CERTIFICADOS / CERTIFIED,GF Social ESP/ITA/POR,GF Social ESP/ITA/POR
Cake Mamas,43.8168267,7.777837600000001,,OpcionesCERT,CERTIFICADOS / CERTIFIED,GF Social ESP/ITA/POR,GF Social ESP/ITA/POR
L'Osteria Mia - Saint-Vincent,45.74839610000001,7.6523341999999985,,OpcionesCERT,CERTIFICADOS / CERTIFIED,GF Social ESP/ITA/POR,GF Social ESP/ITA/POR
Odissea,43.8881493,10.229116,,OpcionesCERT,CERTIFICADOS / CERTIFIED,GF Social ESP/ITA/POR,GF Social ESP/ITA/POR
Zefiro - Ristorante Pizzeria,45.0560286,9.618635699999999,,OpcionesCERT,CERTIFICADOS / CERTIFIED,GF Social ESP/ITA/POR,GF Social ESP/ITA/POR
Green Park,45.6145589,9.587755099999999,,OpcionesCERT,CERTIFICADOS / CERTIFIED,GF Social ESP/ITA/POR,GF Social ESP/ITA/POR
Divino in gusto alla Magione,38.1153705,13.3699458,,OpcionesCERT,CERTIFICADOS / CERTIFIED,GF Social ESP/ITA/POR,GF Social ESP/ITA/POR
Nonna Lilia trattoria tipica Salentina,40.1732132,18.1703162,,OpcionesCERT,CERTIFICADOS / CERTIFIED,GF Social ESP/ITA/POR,GF Social ESP/ITA/POR
VIZIO,40.1561572,18.2930335,,OpcionesCERT,CERTIFICADOS / CERTIFIED,GF Social ESP/ITA/POR,GF Social ESP/ITA/POR
O'sarracino,42.4161656,12.105731,,OpcionesCERT,CERTIFICADOS / CERTIFIED,GF Social ESP/ITA/POR,GF Social ESP/ITA/POR
La Sosta del Suffragio,42.418577,12.1071392,,OpcionesCERT,CERTIFICADOS / CERTIFIED,GF Social ESP/ITA/POR,GF Social ESP/ITA/POR
Un Sacco Buono,42.4258546,12.1017385,,OpcionesCERT,CERTIFICADOS / CERTIFIED,GF Social ESP/ITA/POR,GF Social ESP/ITA/POR
La sosta del Suffragio Fuori le Mura,42.42618909999999,12.1048152,,OpcionesCERT,CERTIFICADOS / CERTIFIED,GF Social ESP/ITA/POR,GF Social ESP/ITA/POR
Osteria di Sughero,42.42531959999999,12.0731897,,OpcionesCERT,CERTIFICADOS / CERTIFIED,GF Social ESP/ITA/POR,GF Social ESP/ITA/POR
Ristorante Trattoria Da Oliviera,42.3818168,12.0749225,,OpcionesCERT,CERTIFICADOS / CERTIFIED,GF Social ESP/ITA/POR,GF Social ESP/ITA/POR
Doppio zero,42.3084701,12.0785521,,OpcionesCERT,CERTIFICADOS / CERTIFIED,GF Social ESP/ITA/POR,GF Social ESP/ITA/POR
Forno Bacciani,42.3077665,12.0799602,,OpcionesCERT,CERTIFICADOS / CERTIFIED,GF Social ESP/ITA/POR,GF Social ESP/ITA/POR
Pizzeria Sfizio,42.3009366,12.0931635,,OpcionesCERT,CERTIFICADOS / CERTIFIED,GF Social ESP/ITA/POR,GF Social ESP/ITA/POR
"Trattoria Pizzeria ""da Peppone""",42.2786112,12.0513263,,OpcionesCERT,CERTIFICADOS / CERTIFIED,GF Social ESP/ITA/POR,GF Social ESP/ITA/POR
Bar Pizzeria Fast food La Piroga,42.5479995,11.8979887,,OpcionesCERT,CERTIFICADOS / CERTIFIED,GF Social ESP/ITA/POR,GF Social ESP/ITA/POR
Pizzeria Tanaquilla,42.6459857,11.98811,,OpcionesCERT,CERTIFICADOS / CERTIFIED,GF Social ESP/ITA/POR,GF Social ESP/ITA/POR
Agriturismo Quadrifoglio,42.3250677,11.7216053,,OpcionesCERT,CERTIFICADOS / CERTIFIED,GF Social ESP/ITA/POR,GF Social ESP/ITA/POR
Trattoria la Grotta,42.7178388,12.1110623,,OpcionesCERT,CERTIFICADOS / CERTIFIED,GF Social ESP/ITA/POR,GF Social ESP/ITA/POR
Antico Bucchero,42.7183001,12.1102097,,OpcionesCERT,CERTIFICADOS / CERTIFIED,GF Social ESP/ITA/POR,GF Social ESP/ITA/POR
Antica Cantina,42.71934199999999,12.11628,,OpcionesCERT,CERTIFICADOS / CERTIFIED,GF Social ESP/ITA/POR,GF Social ESP/ITA/POR
La Buca di Bacco di Edy,42.71940069999999,12.1161922,,OpcionesCERT,CERTIFICADOS / CERTIFIED,GF Social ESP/ITA/POR,GF Social ESP/ITA/POR
L'Ambaradam ristorante,42.2542901,11.7589113,,OpcionesCERT,CERTIFICADOS / CERTIFIED,GF Social ESP/ITA/POR,GF Social ESP/ITA/POR
Valle del Marta,42.2442822,11.8081275,,OpcionesCERT,CERTIFICADOS / CERTIFIED,GF Social ESP/ITA/POR,GF Social ESP/ITA/POR
Pizzando,42.104186,12.1741746,,OpcionesCERT,CERTIFICADOS / CERTIFIED,GF Social ESP/ITA/POR,GF Social ESP/ITA/POR
Crazy Bull Cafe',42.1037626,12.166636500000001,,OpcionesCERT,CERTIFICADOS / CERTIFIED,GF Social ESP/ITA/POR,GF Social ESP/ITA/POR
Ostaria La Babbiona,42.10208079999999,11.795961,,OpcionesCERT,CERTIFICADOS / CERTIFIED,GF Social ESP/ITA/POR,GF Social ESP/ITA/POR
Bar AkkA,42.096773,11.7996272,,OpcionesCERT,CERTIFICADOS / CERTIFIED,GF Social ESP/ITA/POR,GF Social ESP/ITA/POR
Ristorante Taverna dell'Olmo,42.0905334,11.8035724,,OpcionesCERT,CERTIFICADOS / CERTIFIED,GF Social ESP/ITA/POR,GF Social ESP/ITA/POR
Caffè Nazionale Gelateria Artigianale,42.0930942,11.7973696,,OpcionesCERT,CERTIFICADOS / CERTIFIED,GF Social ESP/ITA/POR,GF Social ESP/ITA/POR
Le Delizie di Madeddu,42.0899458,11.8033128,,OpcionesCERT,CERTIFICADOS / CERTIFIED,GF Social ESP/ITA/POR,GF Social ESP/ITA/POR
Chalet del Pincio,42.0920181,11.7960548,,OpcionesCERT,CERTIFICADOS / CERTIFIED,GF Social ESP/ITA/POR,GF Social ESP/ITA/POR
Pizzeria Il Cantuccio,42.0935387,11.793173,,OpcionesCERT,CERTIFICADOS / CERTIFIED,GF Social ESP/ITA/POR,GF Social ESP/ITA/POR
Caffetteria Pasticceria La Fontana,42.0937557,11.7919183,,OpcionesCERT,CERTIFICADOS / CERTIFIED,GF Social ESP/ITA/POR,GF Social ESP/ITA/POR
Pizzeria Red Carpet,42.0909202,11.7942333,,OpcionesCERT,CERTIFICADOS / CERTIFIED,GF Social ESP/ITA/POR,GF Social ESP/ITA/POR
Caffetteria Pasticceria La Fontana Di Bufi Roberto,42.0865466,11.8001955,,OpcionesCERT,CERTIFICADOS / CERTIFIED,GF Social ESP/ITA/POR,GF Social ESP/ITA/POR
Ristorante La Brace - Da Guerrino,41.9789649,12.066741300000002,,OpcionesCERT,CERTIFICADOS / CERTIFIED,GF Social ESP/ITA/POR,GF Social ESP/ITA/POR
Diamond Cafè Bistrot,43.0375084,12.4005309,,OpcionesCERT,CERTIFICADOS / CERTIFIED,GF Social ESP/ITA/POR,GF Social ESP/ITA/POR
Bar Caffellatte di Stefano Stella,42.9214215,12.0558523,,OpcionesCERT,CERTIFICADOS / CERTIFIED,GF Social ESP/ITA/POR,GF Social ESP/ITA/POR
L' ape regina,42.9227684,12.0572663,,OpcionesCERT,CERTIFICADOS / CERTIFIED,GF Social ESP/ITA/POR,GF Social ESP/ITA/POR
Oasi Villaggio,42.9114774,12.3313244,,OpcionesCERT,CERTIFICADOS / CERTIFIED,GF Social ESP/ITA/POR,GF Social ESP/ITA/POR
Manitoba Pizzeria,44.4052278,8.932693400000002,,OpcionesCERT,CERTIFICADOS / CERTIFIED,GF Social ESP/ITA/POR,GF Social ESP/ITA/POR
Tiflis Braceria Pizzeria,44.405143,8.932571,,OpcionesCERT,CERTIFICADOS / CERTIFIED,GF Social ESP/ITA/POR,GF Social ESP/ITA/POR
J'aime les Crêpes,44.40435340000001,8.9311778,,OpcionesCERT,CERTIFICADOS / CERTIFIED,GF Social ESP/ITA/POR,GF Social ESP/ITA/POR
Bear and Grill,44.4058265,8.942069000000002,,OpcionesCERT,CERTIFICADOS / CERTIFIED,GF Social ESP/ITA/POR,GF Social ESP/ITA/POR
Caffetteria Sangiorgio,44.4100565,8.9349784,,OpcionesCERT,CERTIFICADOS / CERTIFIED,GF Social ESP/ITA/POR,GF Social ESP/ITA/POR
MOG Mercato Orientale,44.4056501,8.942052599999998,,OpcionesCERT,CERTIFICADOS / CERTIFIED,GF Social ESP/ITA/POR,GF Social ESP/ITA/POR
Caffetteria Sangiorgio,44.40632039999999,8.9423193,,OpcionesCERT,CERTIFICADOS / CERTIFIED,GF Social ESP/ITA/POR,GF Social ESP/ITA/POR
Tigelleria TiGè,44.4115242,8.9297497,,OpcionesCERT,CERTIFICADOS / CERTIFIED,GF Social ESP/ITA/POR,GF Social ESP/ITA/POR
Ristorante Le Vecchie Mura Porto Antico,44.40760629999999,8.925978899999999,,OpcionesCERT,CERTIFICADOS / CERTIFIED,GF Social ESP/ITA/POR,GF Social ESP/ITA/POR
Pizzeria dal Pelato Rosso di Alfonso serafino,44.41390159999999,8.9489476,,OpcionesCERT,CERTIFICADOS / CERTIFIED,GF Social ESP/ITA/POR,GF Social ESP/ITA/POR
Rossopomodoro Genova Porto Antico,44.408469000000004,8.9215471,,OpcionesCERT,CERTIFICADOS / CERTIFIED,GF Social ESP/ITA/POR,GF Social ESP/ITA/POR
Pizzeria Ferro e Pietra,44.4207733,8.9253508,,OpcionesCERT,CERTIFICADOS / CERTIFIED,GF Social ESP/ITA/POR,GF Social ESP/ITA/POR
Caffetteria San Giorgio Torti,44.40735249999999,8.9589813,,OpcionesCERT,CERTIFICADOS / CERTIFIED,GF Social ESP/ITA/POR,GF Social ESP/ITA/POR
I Tre Merli Ristorante Porto Antico,44.4081211,8.9271313,,OpcionesCERT,CERTIFICADOS / CERTIFIED,GF Social ESP/ITA/POR,GF Social ESP/ITA/POR
Pizzeria Quality and Passion - TAKE AWAY,44.40571780000001,8.966389900000001,,OpcionesCERT,CERTIFICADOS / CERTIFIED,GF Social ESP/ITA/POR,GF Social ESP/ITA/POR
iPizza di Michael Anzalone - TAKE AWAY,44.4190625,8.911738099999999,,OpcionesCERT,CERTIFICADOS / CERTIFIED,GF Social ESP/ITA/POR,GF Social ESP/ITA/POR
Pizzeria Franco,44.4116364,8.897007000000002,,OpcionesCERT,CERTIFICADOS / CERTIFIED,GF Social ESP/ITA/POR,GF Social ESP/ITA/POR
Pianeta Pizza Genova,44.4140719,8.8908919,,OpcionesCERT,CERTIFICADOS / CERTIFIED,GF Social ESP/ITA/POR,GF Social ESP/ITA/POR
Caffetteria San Giorgio Rolando,44.4136483,8.888504700000002,,OpcionesCERT,CERTIFICADOS / CERTIFIED,GF Social ESP/ITA/POR,GF Social ESP/ITA/POR
VERCESI Gelateria Artigianale,44.40873719999999,8.988245,,OpcionesCERT,CERTIFICADOS / CERTIFIED,GF Social ESP/ITA/POR,GF Social ESP/ITA/POR
Ristorante Pizzeria Il Focone,44.39006,8.990626299999999,,OpcionesCERT,CERTIFICADOS / CERTIFIED,GF Social ESP/ITA/POR,GF Social ESP/ITA/POR
Castello Raggio,44.41521410000001,8.873595500000002,,OpcionesCERT,CERTIFICADOS / CERTIFIED,GF Social ESP/ITA/POR,GF Social ESP/ITA/POR
La Ola,44.3852685,9.0141602,,OpcionesCERT,CERTIFICADOS / CERTIFIED,GF Social ESP/ITA/POR,GF Social ESP/ITA/POR
Rossopomodoro Sestri Ponente,44.4151567,8.838140100000002,,OpcionesCERT,CERTIFICADOS / CERTIFIED,GF Social ESP/ITA/POR,GF Social ESP/ITA/POR
Enea,44.4231646,8.8500901,,OpcionesCERT,CERTIFICADOS / CERTIFIED,GF Social ESP/ITA/POR,GF Social ESP/ITA/POR
Al Girarrosto,44.4901528,8.902251800000002,,OpcionesCERT,CERTIFICADOS / CERTIFIED,GF Social ESP/ITA/POR,GF Social ESP/ITA/POR
MyChef Sant'Ilario Nord,44.3932349,9.0459591,,OpcionesCERT,CERTIFICADOS / CERTIFIED,GF Social ESP/ITA/POR,GF Social ESP/ITA/POR
Caffetteria San Giorgio Pegli,44.425,8.8175843,,OpcionesCERT,CERTIFICADOS / CERTIFIED,GF Social ESP/ITA/POR,GF Social ESP/ITA/POR
Alla Tavola di Malqu',44.4245067,8.811470800000002,,OpcionesCERT,CERTIFICADOS / CERTIFIED,GF Social ESP/ITA/POR,GF Social ESP/ITA/POR
Ristorante Teresa dal 1968,44.4244923,8.803309700000002,,OpcionesCERT,CERTIFICADOS / CERTIFIED,GF Social ESP/ITA/POR,GF Social ESP/ITA/POR
I Due Fratelli Pizzeria,44.4283469,8.77251,,OpcionesCERT,CERTIFICADOS / CERTIFIED,GF Social ESP/ITA/POR,GF Social ESP/ITA/POR
Ristorante Da Lino,44.363464,9.145241,,OpcionesCERT,CERTIFICADOS / CERTIFIED,GF Social ESP/ITA/POR,GF Social ESP/ITA/POR
CIVICO 32 - Pizzeria Ristorante,44.3507958,9.152242099999997,,OpcionesCERT,CERTIFICADOS / CERTIFIED,GF Social ESP/ITA/POR,GF Social ESP/ITA/POR
Verde Basilico,44.57127939999999,8.956599299999999,,OpcionesCERT,CERTIFICADOS / CERTIFIED,GF Social ESP/ITA/POR,GF Social ESP/ITA/POR
Trattoria da Paladini,44.3436193,9.1822272,,OpcionesCERT,CERTIFICADOS / CERTIFIED,GF Social ESP/ITA/POR,GF Social ESP/ITA/POR
La Madia,44.3356002,9.203293600000002,,OpcionesCERT,CERTIFICADOS / CERTIFIED,GF Social ESP/ITA/POR,GF Social ESP/ITA/POR
Vera Napoli Ristorante Pizzeria,44.3136367,9.324951500000001,,OpcionesCERT,CERTIFICADOS / CERTIFIED,GF Social ESP/ITA/POR,GF Social ESP/ITA/POR
La Bitta Ristorante Pizzeria - Chiavari dal 1992,44.3135825,9.3253052,,OpcionesCERT,CERTIFICADOS / CERTIFIED,GF Social ESP/ITA/POR,GF Social ESP/ITA/POR
Boccon Divino,44.31638889999999,9.328055599999999,,OpcionesCERT,CERTIFICADOS / CERTIFIED,GF Social ESP/ITA/POR,GF Social ESP/ITA/POR
Autogrill Stura Ovest,44.59279650000001,8.664925900000002,,OpcionesCERT,CERTIFICADOS / CERTIFIED,GF Social ESP/ITA/POR,GF Social ESP/ITA/POR
Autogrill Stura Est,44.5916668,8.6659667,,OpcionesCERT,CERTIFICADOS / CERTIFIED,GF Social ESP/ITA/POR,GF Social ESP/ITA/POR
Stella Maris,44.329841599999995,8.514514,,OpcionesCERT,CERTIFICADOS / CERTIFIED,GF Social ESP/ITA/POR,GF Social ESP/ITA/POR
Pizzeria Napoli Di De Rosa Annalisa,44.63351179999999,8.6370554,,OpcionesCERT,CERTIFICADOS / CERTIFIED,GF Social ESP/ITA/POR,GF Social ESP/ITA/POR
Ristorante Da Pietro,44.640781,8.6474619,,OpcionesCERT,CERTIFICADOS / CERTIFIED,GF Social ESP/ITA/POR,GF Social ESP/ITA/POR
Farinata Da Pietro,44.6407536,8.647385,,OpcionesCERT,CERTIFICADOS / CERTIFIED,GF Social ESP/ITA/POR,GF Social ESP/ITA/POR
Ristorante Il Gabbiano,44.30450519999999,9.363287,,OpcionesCERT,CERTIFICADOS / CERTIFIED,GF Social ESP/ITA/POR,GF Social ESP/ITA/POR
Ristorante Au Caruggiu,44.3277154,8.5036738,,OpcionesCERT,CERTIFICADOS / CERTIFIED,GF Social ESP/ITA/POR,GF Social ESP/ITA/POR
Ugo Pizza,44.29611209999999,9.3683151,,OpcionesCERT,CERTIFICADOS / CERTIFIED,GF Social ESP/ITA/POR,GF Social ESP/ITA/POR
Ristorante Il Cigno,44.28848070000001,9.380204200000001,,OpcionesCERT,CERTIFICADOS / CERTIFIED,GF Social ESP/ITA/POR,GF Social ESP/ITA/POR
Barbarossa,44.30666669999999,8.48,,OpcionesCERT,CERTIFICADOS / CERTIFIED,GF Social ESP/ITA/POR,GF Social ESP/ITA/POR
Gelateria Cora,44.2998055,8.4738047,,OpcionesCERT,CERTIFICADOS / CERTIFIED,GF Social ESP/ITA/POR,GF Social ESP/ITA/POR
Agriturismo Albachiara,44.6835136,8.5994758,,OpcionesCERT,CERTIFICADOS / CERTIFIED,GF Social ESP/ITA/POR,GF Social ESP/ITA/POR
Pizzeria L'Ultima Spiaggia,44.762939,8.8010979,,OpcionesCERT,CERTIFICADOS / CERTIFIED,GF Social ESP/ITA/POR,GF Social ESP/ITA/POR
Ristorante Pizzeria La Terrazza,44.7632553,8.7886285,,OpcionesCERT,CERTIFICADOS / CERTIFIED,GF Social ESP/ITA/POR,GF Social ESP/ITA/POR
L' Albero del Pane Sestri Levante,44.2705953,9.4213013,,OpcionesCERT,CERTIFICADOS / CERTIFIED,GF Social ESP/ITA/POR,GF Social ESP/ITA/POR
Il Ritrovo di Serio Antonio,44.6540938,8.532639500000002,,OpcionesCERT,CERTIFICADOS / CERTIFIED,GF Social ESP/ITA/POR,GF Social ESP/ITA/POR
Ristorante La Locanda dei Narcisi,44.80732029999999,8.824129400000002,,OpcionesCERT,CERTIFICADOS / CERTIFIED,GF Social ESP/ITA/POR,GF Social ESP/ITA/POR
Agriturismo - Azienda Agricola Arca di Nenè di Ottaviani Valentina,44.2854641,9.488420000000001,,OpcionesCERT,CERTIFICADOS / CERTIFIED,GF Social ESP/ITA/POR,GF Social ESP/ITA/POR
Sagapò Gelateria Spotorno,44.2257054,8.4144115,,OpcionesCERT,CERTIFICADOS / CERTIFIED,GF Social ESP/ITA/POR,GF Social ESP/ITA/POR
My Chef,44.8003296,8.750661599999999,,OpcionesCERT,CERTIFICADOS / CERTIFIED,GF Social ESP/ITA/POR,GF Social ESP/ITA/POR
Pappus Gelateria Artigianale,44.20591,8.415551,,OpcionesCERT,CERTIFICADOS / CERTIFIED,GF Social ESP/ITA/POR,GF Social ESP/ITA/POR
Ristorante Angolo Divino,44.6750772,8.470335500000001,,OpcionesCERT,CERTIFICADOS / CERTIFIED,GF Social ESP/ITA/POR,GF Social ESP/ITA/POR
Agriturismo Da.matra',44.761063,8.520311599999998,,OpcionesCERT,CERTIFICADOS / CERTIFIED,GF Social ESP/ITA/POR,GF Social ESP/ITA/POR
Gelateria Antico Borgo,44.35617120000001,8.291352300000002,,OpcionesCERT,CERTIFICADOS / CERTIFIED,GF Social ESP/ITA/POR,GF Social ESP/ITA/POR
All'Eremo,44.28284009999999,8.2949099,,OpcionesCERT,CERTIFICADOS / CERTIFIED,GF Social ESP/ITA/POR,GF Social ESP/ITA/POR
Il Portico,44.219085,8.324145,,OpcionesCERT,CERTIFICADOS / CERTIFIED,GF Social ESP/ITA/POR,GF Social ESP/ITA/POR
Ristorante La Teca,44.6611896,8.369220300000002,,OpcionesCERT,CERTIFICADOS / CERTIFIED,GF Social ESP/ITA/POR,GF Social ESP/ITA/POR
Agriturismo - Cascina Maddalena,44.8891401,8.923041099999999,,OpcionesCERT,CERTIFICADOS / CERTIFIED,GF Social ESP/ITA/POR,GF Social ESP/ITA/POR
Agriturismo Bastian,44.7571454,8.4384632,,OpcionesCERT,CERTIFICADOS / CERTIFIED,GF Social ESP/ITA/POR,GF Social ESP/ITA/POR
Giraudi Cioccolato Artigianale,44.8549079,8.545412999999998,,OpcionesCERT,CERTIFICADOS / CERTIFIED,GF Social ESP/ITA/POR,GF Social ESP/ITA/POR
Coconuts Gluten Free Ancona,43.6068531,13.5078917,,OpcionesCERT,CERTIFICADOS / CERTIFIED,GF Social ESP/ITA/POR,GF Social ESP/ITA/POR
La Golosa,43.59983260000001,13.5158687,,OpcionesCERT,CERTIFICADOS / CERTIFIED,GF Social ESP/ITA/POR,GF Social ESP/ITA/POR
La Botte Ristorante Pizzeria,43.5972664,13.5169341,,OpcionesCERT,CERTIFICADOS / CERTIFIED,GF Social ESP/ITA/POR,GF Social ESP/ITA/POR
Osteria La Bottega Di Pinocchio,43.5891745,13.4929208,,OpcionesCERT,CERTIFICADOS / CERTIFIED,GF Social ESP/ITA/POR,GF Social ESP/ITA/POR
Pizzeria Avalon,43.57677669999999,13.5095111,,OpcionesCERT,CERTIFICADOS / CERTIFIED,GF Social ESP/ITA/POR,GF Social ESP/ITA/POR
Opera Nova della Marca,43.5739487,13.536515800000002,,OpcionesCERT,CERTIFICADOS / CERTIFIED,GF Social ESP/ITA/POR,GF Social ESP/ITA/POR
Löwengrube,43.56002300000001,13.5101209,,OpcionesCERT,CERTIFICADOS / CERTIFIED,GF Social ESP/ITA/POR,GF Social ESP/ITA/POR
Ristorante Pizzeria Da Romano,43.6185947,13.4264001,,OpcionesCERT,CERTIFICADOS / CERTIFIED,GF Social ESP/ITA/POR,GF Social ESP/ITA/POR
Coconuts Gluten Free Falconara - TAKE AWAY,43.6218305,13.4156847,,OpcionesCERT,CERTIFICADOS / CERTIFIED,GF Social ESP/ITA/POR,GF Social ESP/ITA/POR
The Cantuccio Focacceria And Spaghetteria,43.6252805,13.4058951,,OpcionesCERT,CERTIFICADOS / CERTIFIED,GF Social ESP/ITA/POR,GF Social ESP/ITA/POR
Ristorante Pizzeria Il Falcone,43.6258336,13.404787300000002,,OpcionesCERT,CERTIFICADOS / CERTIFIED,GF Social ESP/ITA/POR,GF Social ESP/ITA/POR
Ristorante Elis Marchetti Conero Golf Club Sirolo,43.5122424,13.589998800000002,,OpcionesCERT,CERTIFICADOS / CERTIFIED,GF Social ESP/ITA/POR,GF Social ESP/ITA/POR
MARINO1958,43.5069007,13.6217708,,OpcionesCERT,CERTIFICADOS / CERTIFIED,GF Social ESP/ITA/POR,GF Social ESP/ITA/POR
Ristorante Eugenio,43.5056266,13.6217956,,OpcionesCERT,CERTIFICADOS / CERTIFIED,GF Social ESP/ITA/POR,GF Social ESP/ITA/POR
Ristorante Ada,43.477157,13.4794403,,OpcionesCERT,CERTIFICADOS / CERTIFIED,GF Social ESP/ITA/POR,GF Social ESP/ITA/POR
Ristorante Braceria Pizzeria Il Girasole,43.6557666,13.3190029,,OpcionesCERT,CERTIFICADOS / CERTIFIED,GF Social ESP/ITA/POR,GF Social ESP/ITA/POR
Ristorante Il Villino,43.44793589999999,13.5046703,,OpcionesCERT,CERTIFICADOS / CERTIFIED,GF Social ESP/ITA/POR,GF Social ESP/ITA/POR
Ristorante Paoloni La Brusca,43.5300221,13.3179615,,OpcionesCERT,CERTIFICADOS / CERTIFIED,GF Social ESP/ITA/POR,GF Social ESP/ITA/POR
Mezzometro Senigallia,43.69874779999999,13.2496366,,OpcionesCERT,CERTIFICADOS / CERTIFIED,GF Social ESP/ITA/POR,GF Social ESP/ITA/POR
Gelato Mio Srl - Laboratorio Ciro & Pio,43.5255901,13.2559962,,OpcionesCERT,CERTIFICADOS / CERTIFIED,GF Social ESP/ITA/POR,GF Social ESP/ITA/POR
Il Lato Dolce,43.43214499999999,13.6641982,,OpcionesCERT,CERTIFICADOS / CERTIFIED,GF Social ESP/ITA/POR,GF Social ESP/ITA/POR
Officina99 Zucchero e Sale,43.43239350000001,13.6650245,,OpcionesCERT,CERTIFICADOS / CERTIFIED,GF Social ESP/ITA/POR,GF Social ESP/ITA/POR
Pizzeria Capuano's,43.43018530000001,13.6645653,,OpcionesCERT,CERTIFICADOS / CERTIFIED,GF Social ESP/ITA/POR,GF Social ESP/ITA/POR
Gelateria del Corso,43.4284717,13.665989700000003,,OpcionesCERT,CERTIFICADOS / CERTIFIED,GF Social ESP/ITA/POR,GF Social ESP/ITA/POR
Ristorante Da Ciccio,43.7013361,13.246805500000002,,OpcionesCERT,CERTIFICADOS / CERTIFIED,GF Social ESP/ITA/POR,GF Social ESP/ITA/POR
Rossointenso Enoteca Ristorante,43.52175330000001,13.2413882,,OpcionesCERT,CERTIFICADOS / CERTIFIED,GF Social ESP/ITA/POR,GF Social ESP/ITA/POR
byNice Jesi,43.52248600000001,13.2412277,,OpcionesCERT,CERTIFICADOS / CERTIFIED,GF Social ESP/ITA/POR,GF Social ESP/ITA/POR
Ciro & Pio,43.52213689999999,13.2401508,,OpcionesCERT,CERTIFICADOS / CERTIFIED,GF Social ESP/ITA/POR,GF Social ESP/ITA/POR
Mezzometro Jesi,43.5220833,13.239521,,OpcionesCERT,CERTIFICADOS / CERTIFIED,GF Social ESP/ITA/POR,GF Social ESP/ITA/POR
Coconuts Gluten Free Jesi - TAKE AWAY,43.5255269,13.2322375,,OpcionesCERT,CERTIFICADOS / CERTIFIED,GF Social ESP/ITA/POR,GF Social ESP/ITA/POR
America Graffiti Diner Restaurant Senigallia,43.7003733,13.2478968,,OpcionesCERT,CERTIFICADOS / CERTIFIED,GF Social ESP/ITA/POR,GF Social ESP/ITA/POR
Longevia® Senigallia,43.7056644,13.2385851,,OpcionesCERT,CERTIFICADOS / CERTIFIED,GF Social ESP/ITA/POR,GF Social ESP/ITA/POR
pasta fresca la casereccia,43.7078121,13.2257531,,OpcionesCERT,CERTIFICADOS / CERTIFIED,GF Social ESP/ITA/POR,GF Social ESP/ITA/POR
Il Ristorante La Rotonda,43.4067614,13.6777235,,OpcionesCERT,CERTIFICADOS / CERTIFIED,GF Social ESP/ITA/POR,GF Social ESP/ITA/POR
Pizzeria Simoncelli Senigallia,43.7152931,13.2191515,,OpcionesCERT,CERTIFICADOS / CERTIFIED,GF Social ESP/ITA/POR,GF Social ESP/ITA/POR
Garage Pizzeria Gourmet Senigallia,43.7157014,13.2173875,,OpcionesCERT,CERTIFICADOS / CERTIFIED,GF Social ESP/ITA/POR,GF Social ESP/ITA/POR
Piadineria Piadinando - artigiani della piadina,43.7263701,13.2043577,,OpcionesCERT,CERTIFICADOS / CERTIFIED,GF Social ESP/ITA/POR,GF Social ESP/ITA/POR
Pizza Tranquilli,43.6451011,13.1390315,,OpcionesCERT,CERTIFICADOS / CERTIFIED,GF Social ESP/ITA/POR,GF Social ESP/ITA/POR
La Riva da Franco,43.7592519,13.1570516,,OpcionesCERT,CERTIFICADOS / CERTIFIED,GF Social ESP/ITA/POR,GF Social ESP/ITA/POR
Agriturismo - Ristorante Mangia,43.3247642,13.6650419,,OpcionesCERT,CERTIFICADOS / CERTIFIED,GF Social ESP/ITA/POR,GF Social ESP/ITA/POR
Just And Pizza di Giustozzi Andrea - DELIVERY,43.3018569,13.4598981,,OpcionesCERT,CERTIFICADOS / CERTIFIED,GF Social ESP/ITA/POR,GF Social ESP/ITA/POR
Osteria dei Fiori,43.2993147,13.4541368,,OpcionesCERT,CERTIFICADOS / CERTIFIED,GF Social ESP/ITA/POR,GF Social ESP/ITA/POR
FARINAMO - TAKE AWAY,43.7732069,13.1330378,,OpcionesCERT,CERTIFICADOS / CERTIFIED,GF Social ESP/ITA/POR,GF Social ESP/ITA/POR
Perbacco Country House Locanda,43.7443661,13.1108244,,OpcionesCERT,CERTIFICADOS / CERTIFIED,GF Social ESP/ITA/POR,GF Social ESP/ITA/POR
Piagge Del Sole Ospitalità Rurale,43.5518087,13.0906924,,OpcionesCERT,CERTIFICADOS / CERTIFIED,GF Social ESP/ITA/POR,GF Social ESP/ITA/POR
Gelateria Tutto Gelato,43.2928096,13.4361878,,OpcionesCERT,CERTIFICADOS / CERTIFIED,GF Social ESP/ITA/POR,GF Social ESP/ITA/POR
Chiostro Dell'avis,43.7508437,13.0975824,,OpcionesCERT,CERTIFICADOS / CERTIFIED,GF Social ESP/ITA/POR,GF Social ESP/ITA/POR
Ristorante Villa Cortese,43.3377037,13.3073472,,OpcionesCERT,CERTIFICADOS / CERTIFIED,GF Social ESP/ITA/POR,GF Social ESP/ITA/POR
Ristorante Pizzeria Gina,43.4404032,13.118588200000001,,OpcionesCERT,CERTIFICADOS / CERTIFIED,GF Social ESP/ITA/POR,GF Social ESP/ITA/POR
Basium Gelateria,43.3083628,13.7303171,,OpcionesCERT,CERTIFICADOS / CERTIFIED,GF Social ESP/ITA/POR,GF Social ESP/ITA/POR
America Graffiti,43.30846309999999,13.7316405,,OpcionesCERT,CERTIFICADOS / CERTIFIED,GF Social ESP/ITA/POR,GF Social ESP/ITA/POR
Ristorante Pizzeria L'Oasi,43.4799534,13.0792903,,OpcionesCERT,CERTIFICADOS / CERTIFIED,GF Social ESP/ITA/POR,GF Social ESP/ITA/POR
Löwengrube,43.292759,13.7061483,,OpcionesCERT,CERTIFICADOS / CERTIFIED,GF Social ESP/ITA/POR,GF Social ESP/ITA/POR
Pastry Chocolate Romoli,43.3025796,13.7354821,,OpcionesCERT,CERTIFICADOS / CERTIFIED,GF Social ESP/ITA/POR,GF Social ESP/ITA/POR
Pizzeria La Briciola Beach,43.3009007,13.737831,,OpcionesCERT,CERTIFICADOS / CERTIFIED,GF Social ESP/ITA/POR,GF Social ESP/ITA/POR
Pizzeria Corridonia,43.25226850000001,13.5063926,,OpcionesCERT,CERTIFICADOS / CERTIFIED,GF Social ESP/ITA/POR,GF Social ESP/ITA/POR
Ristorante da Otello,43.3133333,13.2408333,,OpcionesCERT,CERTIFICADOS / CERTIFIED,GF Social ESP/ITA/POR,GF Social ESP/ITA/POR
Gelatomania,43.2509173,13.5121904,,OpcionesCERT,CERTIFICADOS / CERTIFIED,GF Social ESP/ITA/POR,GF Social ESP/ITA/POR
Ristorante Pizzeria Cocoon,43.27182,13.7508697,,OpcionesCERT,CERTIFICADOS / CERTIFIED,GF Social ESP/ITA/POR,GF Social ESP/ITA/POR
Ciak Brasserie Pizzeria Ristorante,43.2715606,13.753136,,OpcionesCERT,CERTIFICADOS / CERTIFIED,GF Social ESP/ITA/POR,GF Social ESP/ITA/POR
Gelati d'Autore,43.26931859999999,13.7546448,,OpcionesCERT,CERTIFICADOS / CERTIFIED,GF Social ESP/ITA/POR,GF Social ESP/ITA/POR
Ristorante il Barone Rosso,43.8206471,13.0248871,,OpcionesCERT,CERTIFICADOS / CERTIFIED,GF Social ESP/ITA/POR,GF Social ESP/ITA/POR
Ristorante Biricocco,43.7900484,12.9962669,,OpcionesCERT,CERTIFICADOS / CERTIFIED,GF Social ESP/ITA/POR,GF Social ESP/ITA/POR
Pizzeria Da Roby's - TAKE AWAY,43.7966742,12.9957035,,OpcionesCERT,CERTIFICADOS / CERTIFIED,GF Social ESP/ITA/POR,GF Social ESP/ITA/POR
Osteria dalla Peppa,43.8405415,13.0193192,,OpcionesCERT,CERTIFICADOS / CERTIFIED,GF Social ESP/ITA/POR,GF Social ESP/ITA/POR
Ristorante Maria Cavallara,43.7167167,12.9436597,,OpcionesCERT,CERTIFICADOS / CERTIFIED,GF Social ESP/ITA/POR,GF Social ESP/ITA/POR
Gelateria Caffetteria Antonini,43.1624729,13.7175307,,OpcionesCERT,CERTIFICADOS / CERTIFIED,GF Social ESP/ITA/POR,GF Social ESP/ITA/POR
Amazon Counter - BAR BRUNI SPORT,43.159128,13.784575,,OpcionesCERT,CERTIFICADOS / CERTIFIED,GF Social ESP/ITA/POR,GF Social ESP/ITA/POR
Pizzeria Happy Days,43.1790809,13.7972316,,OpcionesCERT,CERTIFICADOS / CERTIFIED,GF Social ESP/ITA/POR,GF Social ESP/ITA/POR
Gelateria Pelacani,43.1795462,13.7984875,,OpcionesCERT,CERTIFICADOS / CERTIFIED,GF Social ESP/ITA/POR,GF Social ESP/ITA/POR
Ristorante Chalet Vela,43.18322999999999,13.7976124,,OpcionesCERT,CERTIFICADOS / CERTIFIED,GF Social ESP/ITA/POR,GF Social ESP/ITA/POR
Underground Music Pub,43.1765288,13.800836300000002,,OpcionesCERT,CERTIFICADOS / CERTIFIED,GF Social ESP/ITA/POR,GF Social ESP/ITA/POR
Ristorante Pinseria Duilio,43.1682128,13.8053836,,OpcionesCERT,CERTIFICADOS / CERTIFIED,GF Social ESP/ITA/POR,GF Social ESP/ITA/POR
Al Piccolo Caffè,43.0851283,13.7168445,,OpcionesCERT,CERTIFICADOS / CERTIFIED,GF Social ESP/ITA/POR,GF Social ESP/ITA/POR
Artigiangel Snc,43.1326724,13.6242627,,OpcionesCERT,CERTIFICADOS / CERTIFIED,GF Social ESP/ITA/POR,GF Social ESP/ITA/POR
Ristorante Pizzeria GLU Mirage,43.1250856,13.8246138,,OpcionesCERT,CERTIFICADOS / CERTIFIED,GF Social ESP/ITA/POR,GF Social ESP/ITA/POR
Pizzeria Ristorante Le Papillon Di Isabella Cataldi,43.1051638,13.8352812,,OpcionesCERT,CERTIFICADOS / CERTIFIED,GF Social ESP/ITA/POR,GF Social ESP/ITA/POR
Agriturismo Cre 'Seren,45.1387973,7.008631000000001,,OpcionesCERT,CERTIFICADOS / CERTIFIED,GF Social ESP/ITA/POR,GF Social ESP/ITA/POR
Agriturismo - C'era Una Volta,45.17932889999999,7.007814799999999,,OpcionesCERT,CERTIFICADOS / CERTIFIED,GF Social ESP/ITA/POR,GF Social ESP/ITA/POR
Bar Mignon anche Pizzeria Ristorante,45.1386359,7.0488965,,OpcionesCERT,CERTIFICADOS / CERTIFIED,GF Social ESP/ITA/POR,GF Social ESP/ITA/POR
Agriturismo 'L Perol,44.3108414,7.3674026,,OpcionesCERT,CERTIFICADOS / CERTIFIED,GF Social ESP/ITA/POR,GF Social ESP/ITA/POR
Bar Caffe' Colorado,43.4724347,12.2443661,,OpcionesCERT,CERTIFICADOS / CERTIFIED,GF Social ESP/ITA/POR,GF Social ESP/ITA/POR
Lo Scacciapensieri,43.4366149,12.4339818,,OpcionesCERT,CERTIFICADOS / CERTIFIED,GF Social ESP/ITA/POR,GF Social ESP/ITA/POR
Agriturismo Ca' Montioni,43.6302834,12.3050712,,OpcionesCERT,CERTIFICADOS / CERTIFIED,GF Social ESP/ITA/POR,GF Social ESP/ITA/POR
Tankard Pizza & Food - Città di Castello,43.45738199999999,12.243807300000002,,OpcionesCERT,CERTIFICADOS / CERTIFIED,GF Social ESP/ITA/POR,GF Social ESP/ITA/POR
Ristorante Pizzeria Vecchia Fattoria,43.6635274,12.4147708,,OpcionesCERT,CERTIFICADOS / CERTIFIED,GF Social ESP/ITA/POR,GF Social ESP/ITA/POR
With and without,43.4700921,12.232307,,OpcionesCERT,CERTIFICADOS / CERTIFIED,GF Social ESP/ITA/POR,GF Social ESP/ITA/POR
Artcafe' Gel. Cremi',43.50087629999999,12.2052329,,OpcionesCERT,CERTIFICADOS / CERTIFIED,GF Social ESP/ITA/POR,GF Social ESP/ITA/POR
Il Sesto Canto Ristorante Pizzeria,43.47145589999999,12.2291262,,OpcionesCERT,CERTIFICADOS / CERTIFIED,GF Social ESP/ITA/POR,GF Social ESP/ITA/POR
Ristorante Pizzeria Green,43.5404817,12.1904267,,OpcionesCERT,CERTIFICADOS / CERTIFIED,GF Social ESP/ITA/POR,GF Social ESP/ITA/POR
Il Dongione Ristorante,43.5489082,12.1772432,,OpcionesCERT,CERTIFICADOS / CERTIFIED,GF Social ESP/ITA/POR,GF Social ESP/ITA/POR
Bar ristorante Il Covo del contrabbandiere,43.5581127,12.171467100000001,,OpcionesCERT,CERTIFICADOS / CERTIFIED,GF Social ESP/ITA/POR,GF Social ESP/ITA/POR
Gelateria Ghignoni since 1981,43.56319209999999,12.1597762,,OpcionesCERT,CERTIFICADOS / CERTIFIED,GF Social ESP/ITA/POR,GF Social ESP/ITA/POR
Ristorante Pizzeria Le Fontane,43.5390406,12.691639200000001,,OpcionesCERT,CERTIFICADOS / CERTIFIED,GF Social ESP/ITA/POR,GF Social ESP/ITA/POR
Agriturismo Il Trebbio,43.5455589,12.1465997,,OpcionesCERT,CERTIFICADOS / CERTIFIED,GF Social ESP/ITA/POR,GF Social ESP/ITA/POR
Ristorante Pizzeria 0575,43.5697434,12.146293,,OpcionesCERT,CERTIFICADOS / CERTIFIED,GF Social ESP/ITA/POR,GF Social ESP/ITA/POR
Ristorante Al Coccio,43.5703278,12.1440224,,OpcionesCERT,CERTIFICADOS / CERTIFIED,GF Social ESP/ITA/POR,GF Social ESP/ITA/POR
Bar Via Marconi - Nuova Autostazione,43.5730209,12.1387948,,OpcionesCERT,CERTIFICADOS / CERTIFIED,GF Social ESP/ITA/POR,GF Social ESP/ITA/POR
Enoteca Dei Sensi,43.572845,12.138677,,OpcionesCERT,CERTIFICADOS / CERTIFIED,GF Social ESP/ITA/POR,GF Social ESP/ITA/POR
Al Consorzio,43.3688868,12.2376356,,OpcionesCERT,CERTIFICADOS / CERTIFIED,GF Social ESP/ITA/POR,GF Social ESP/ITA/POR
IQOS PREMIUM PARTNER SANSEPOLCRO,43.5752652,12.1295745,,OpcionesCERT,CERTIFICADOS / CERTIFIED,GF Social ESP/ITA/POR,GF Social ESP/ITA/POR
