nombre,lat,lng,direccion,categoria,capa,mapa,lista
La Cocina de Ruty,28.1173608,-15.439617,,,,Lista personal Gluten-free,Gluten-free
Amelie Restaurant,28.1331258,-15.4358273,"con, C. Jesús Ferrer Jimeno 4 (Trasera Avda mesa y López, C. Olof Palme, 35010 Las Palmas de Gran Canaria, Las Palmas",,,Lista personal Gluten-free,Gluten-free
Dulce salud Vzla,27.845214499999997,-15.442069,"C. Adargoma, 36, 35110 Vecindario, Las Palmas",,,Lista personal Gluten-free,Gluten-free
La Despensa de Diderot,28.1361898,-15.4355637,"C. Diderot, 8, 35007 Las Palmas de Gran Canaria, Las Palmas",,,Lista personal Gluten-free,Gluten-free
Restaurante Guarapo Tropical,27.763009099999998,-15.5613893,"Av. de Madrid, 1, 35100 Maspalomas, Las Palmas",,,Lista personal Gluten-free,Gluten-free
Restaurante Mestura,28.101785399999997,-15.4130542,"C. Mendizábal, 28, 35001 Las Palmas de Gran Canaria, Las Palmas",,,Lista personal Gluten-free,Gluten-free
Restaurante Smokehouse La Frontera,28.0091406,-15.544487499999999,"C. Las Cabrejas, 35320 Vega de San Mateo, Las Palmas",,,Lista personal Gluten-free,Gluten-free
Restaurante Club AECA,28.0501127,-15.4721163,"C. Rosales, 4, 35310 Las Palmas de Gran Canaria, Las Palmas",,,Lista personal Gluten-free,Gluten-free
Restaurante El Rifeño Vegueta,28.1020267,-15.414060899999999,,,,Lista personal Gluten-free,Gluten-free
Restaurante La Colonial de Fontanales,28.0577963,-15.608052899999999,"Pl. San Bartolomé, 8, 35421 Fontanales, Las Palmas",,,Lista personal Gluten-free,Gluten-free
Lavaysalt,28.1298572,-15.4440083,"C. Simancas, 70, 35010 Las Palmas de Gran Canaria, Las Palmas",,,Lista personal Gluten-free,Gluten-free
Templo de Pandora,28.137190099999998,-15.435661399999999,"Plazoleta de Farray, 2, 35007 Las Palmas de Gran Canaria, Las Palmas",,,Lista personal Gluten-free,Gluten-free
La Cantina del Geco,28.6502683,-17.8771029,"Ctra. General, 38, 38750 El Paso, Santa Cruz de Tenerife",,,Lista personal Gluten-free,Gluten-free
Arepera Yaracuy,28.6518372,-17.8823792,"C. Antonio Pino Pérez, 10, 38750 El Paso, Santa Cruz de Tenerife",,,Lista personal Gluten-free,Gluten-free
Kiosco Mandala,28.6523766,-17.881242999999998,"Plaza Francisca Gazmira, C. a Paso de Abajo, 2, 38750 El Paso, Santa Cruz de Tenerife",,,Lista personal Gluten-free,Gluten-free
A Raíces,28.1355665,-15.4295496,"C. Juan Manuel Durán González, 5, 35007 Las Palmas de Gran Canaria, Las Palmas",,,Lista personal Gluten-free,Gluten-free
Pizzería A Vista,28.182229999999997,-16.47992,"Carretera General, 26, 38589 Arico Viejo, Santa Cruz de Tenerife",,,Lista personal Gluten-free,Gluten-free
Restaurante Asador La Marisma,28.145277099999998,-15.5633863,"Ctra. la Costa, 15, 35414 Moya, Las Palmas",,,Lista personal Gluten-free,Gluten-free
La Trastienda de Chago,28.1444585,-15.6557096,"C. Andamana, 5, 35460 Gáldar, Las Palmas",,,Lista personal Gluten-free,Gluten-free
Coffee&bike,28.0987852,-15.478771499999999,"C. San Juan de Ávila, 61, 35018 Tamaraceite, Las Palmas",,,Lista personal Gluten-free,Gluten-free
Miss Sushi Santa Catalina Gran Canaria,28.1384063,-15.4311039,"Santa Catalina, C. del Gral. Vives, 54, 35007 Las Palmas de Gran Canaria, Las Palmas",,,Lista personal Gluten-free,Gluten-free
"C. Veintinueve de Abril, 49",28.1397513,-15.4326835,"C. Veintinueve de Abril, 49, 35007 Las Palmas de Gran Canaria, Las Palmas",,,Lista personal Gluten-free,Gluten-free
Bar La Pizarra,28.1445285,-15.6566216,"C. Guaires, 15, 35460 Gáldar, Las Palmas",,,Lista personal Gluten-free,Gluten-free
El Madrugon de Antonio Padron,28.145432999999997,-15.6549201,"35460, 35488 Gáldar, Las Palmas",,,Lista personal Gluten-free,Gluten-free
Bodegón El Biberon,28.1433447,-15.4310221,"C. Pedro Castillo Westerling, 15, 35008 Las Palmas de Gran Canaria, Las Palmas",,,Lista personal Gluten-free,Gluten-free
Farah Kebab,28.12992,-15.4449657,"C. Secretario Padilla, 158, 35010 Las Palmas de Gran Canaria, Las Palmas",,,Lista personal Gluten-free,Gluten-free
Restaurante Nativo Las Palmas,28.142582299999997,-15.5717663,"Ctra. la Costa, 48, 35413 Moya, Las Palmas",,,Lista personal Gluten-free,Gluten-free
Restaurante El Madrugón,28.129026399999997,-15.6619856,"Ctra. General, 29, 35488 San Isidro, Las Palmas",,,Lista personal Gluten-free,Gluten-free
La Vegetería,28.083074999999997,-15.444107299999999,"Ctra. Lomo Blanco, 14, 35015 Las Palmas de Gran Canaria, Las Palmas",,,Lista personal Gluten-free,Gluten-free
"Restaurante Arcos de la Laguna, Valleseco",28.058704799999997,-15.566393,"Carretera Gran Canaria, 21, 35340 Valleseco, Las Palmas",,,Lista personal Gluten-free,Gluten-free
Hawai Poke Maspalomas,27.761363199999998,-15.593397999999999,"Holidayworld Maspalomas Center, Av. Touroperador Tui, 35100 Maspalomas, Las Palmas",,,Lista personal Gluten-free,Gluten-free
La Sirena,27.738974799999998,-15.5994245,"C. Mar Mediterráneo, 2, 35100 San Bartolomé de Tirajana, Las Palmas",,,Lista personal Gluten-free,Gluten-free
Restaurante Grand Italia,27.7368222,-15.6021667,"Shopping Center Boulevard El Faro, Locales. 39,40,41, 35100 Maspalomas",,,Lista personal Gluten-free,Gluten-free
Time Maspalomas,27.7385807,-15.595582799999999,"Av. del Oasis, 30, 35100 Maspalomas, Las Palmas",,,Lista personal Gluten-free,Gluten-free
Guirlache Guanarteme,28.132222,-15.4410733,"C. Simancas, 2, 35010 Las Palmas de Gran Canaria, Las Palmas",,,Lista personal Gluten-free,Gluten-free
Restaurante La Rubia,27.9885584,-15.3746722,,,,Lista personal Gluten-free,Gluten-free
Cafetería El Sobrino,27.995756,-15.396059699999999,,,,Lista personal Gluten-free,Gluten-free
Restaurante El Guachinche - Agüimes,27.9039421,-15.449050399999999,,,,Lista personal Gluten-free,Gluten-free
Hard Rock Cafe Gran Canaria,27.753640599999997,-15.5700629,,,,Lista personal Gluten-free,Gluten-free
LAS BURRAS BEACHOUSE,27.7675782,-15.5504783,,,,Lista personal Gluten-free,Gluten-free
Las Hermanas Churros & Papas,27.8487834,-15.443014999999999,,,,Lista personal Gluten-free,Gluten-free
Restaurante liagora canaria,27.797649399999997,-15.4629803,,,,Lista personal Gluten-free,Gluten-free
Rustico Pizza e Vino,27.7713045,-15.5863515,,,,Lista personal Gluten-free,Gluten-free
"Ristorante Piccola Italia - San Agustin, Gran Canaria",27.7682501,-15.5481407,,,,Lista personal Gluten-free,Gluten-free
La Korianda,28.1325801,-15.440090399999999,,,,Lista personal Gluten-free,Gluten-free
Restaurante Nicontrigonisinti,40.553384699999995,-3.65759,"C/ de María Blanchard, 12, 28702 San Sebastián de los Reyes, Madrid",,,Lista personal Gluten-free,Gluten-free
Restaurante Vega (Guayadeque),27.936716999999998,-15.511975699999999,"Montaña de las Tierras 18, 35260 Ingenio, Las Palmas",,,Lista personal Gluten-free,Gluten-free
Restaurante Ca'Miguel Playa de Arinaga,27.8566972,-15.3931697,"C. Alcalá Galiano, 17, 35118 Arinaga, Las Palmas",,,Lista personal Gluten-free,Gluten-free
Restaurante La Iguana,28.095822599999998,-15.5025857,"Av. de la Democracia, 87, 35018 Las Palmas de Gran Canaria, Las Palmas",,,Lista personal Gluten-free,Gluten-free
Restaurante Grill La Pasadilla,27.945820299999998,-15.4709373,,,,Lista personal Gluten-free,Gluten-free
Dulcería & Heladería San Miguel,27.990804299999997,-15.4988157,,,,Lista personal Gluten-free,Gluten-free
La Punta Yacht Club,27.924945899999997,-15.573029499999999,,,,Lista personal Gluten-free,Gluten-free
Restaurante Terraza Sidrería La Diosa del Mar,28.1015561,-15.711558199999999,,,,Lista personal Gluten-free,Gluten-free
Bar Cafetería Chaplin,28.11814,-15.5232984,,,,Lista personal Gluten-free,Gluten-free
Bochinche El Heredero,28.0022085,-15.5608527,,,,Lista personal Gluten-free,Gluten-free
El Rinconcito Canario,28.037779999999998,-15.580076,,,,Lista personal Gluten-free,Gluten-free
Que Pasa Tío,27.750556699999997,-15.576760499999999,,,,Lista personal Gluten-free,Gluten-free
Rimini Italiano - ParqueMar,27.763273899999998,-15.575291,,,,Lista personal Gluten-free,Gluten-free
Restaurante Pizzería La Mattina,27.784193899999998,-15.7079317,,,,Lista personal Gluten-free,Gluten-free
Da Pinocchio,27.7915608,-15.708359799999998,,,,Lista personal Gluten-free,Gluten-free
La Guagua Blanca,27.796565299999997,-15.6120273,,,,Lista personal Gluten-free,Gluten-free
Panadería Mis hijos sin gluten,27.92418,-15.433969999999999,,,,Lista personal Gluten-free,Gluten-free
Restaurante Molinet,28.1445248,-15.4312484,,,,Lista personal Gluten-free,Gluten-free
Ristorante Pizzería Al Maccaroni,28.1440396,-15.431675199999999,,,,Lista personal Gluten-free,Gluten-free
Piscos & Buches,28.1477173,-15.429191699999999,,,,Lista personal Gluten-free,Gluten-free
Restaurante de Cuchara,28.1419414,-15.4333177,,,,Lista personal Gluten-free,Gluten-free
O'sole Mío La Casa Roja,28.1413029,-15.434857599999999,,,,Lista personal Gluten-free,Gluten-free
Restaurante Libanés Los Cedros (Desde 1969),28.1386085,-15.4365984,,,,Lista personal Gluten-free,Gluten-free
BASAL GRILL & BEACH,28.1391709,-15.4364881,,,,Lista personal Gluten-free,Gluten-free
Llévame al huerto,28.135820799999998,-15.4330485,,,,Lista personal Gluten-free,Gluten-free
Coki SCP,28.1348667,-15.434413699999999,,,,Lista personal Gluten-free,Gluten-free
Smoothie Galaxy Las Palmas,28.130382599999997,-15.4456299,,,,Lista personal Gluten-free,Gluten-free
Pastelería Singlutencake,28.1112468,-15.4176538,,,,Lista personal Gluten-free,Gluten-free
Restaurante 18 Grados,28.101355899999998,-15.4127961,,,,Lista personal Gluten-free,Gluten-free
AriMar – Freiduría y Comida Casera en Playa de Arinaga.,27.857688999999997,-15.3963161,"Av. Polizón, 67, 35118 Arinaga, Las Palmas",,,Sin gluten Canarias,Sin gluten Canarias
Restaurante La Mexicana,27.860996099999998,-15.4348622,"Av. de Canarias, 32, 35110 Vecindario, Las Palmas",,,Sin gluten Canarias,Sin gluten Canarias
Croqueteo,28.0970248,-15.415995899999999,,,,Sin gluten Canarias,Sin gluten Canarias
Mr. Kale,28.1051859,-15.4170178,,,,Sin gluten Canarias,Sin gluten Canarias
Bien de Amores,28.108712299999997,-15.4188154,,,,Sin gluten Canarias,Sin gluten Canarias
Hotel Jardines De Nivaria,28.0888325,-16.7363706,,,,Sin gluten Canarias,Sin gluten Canarias
La Dulce Boutique,28.034809199999998,-15.4987608,,,,Sin gluten Canarias,Sin gluten Canarias
Hot Pot Chaotianmen,28.1035659,-15.416108099999999,"C. Malteses, 11, 35002 Las Palmas de Gran Canaria, Las Palmas",,,Sin gluten Canarias,Sin gluten Canarias
Heladeria Peña la Vieja,28.1381011,-15.4368527,,,,Sin gluten Canarias,Sin gluten Canarias
450Gradi Las Palmas Italian Restaurant,28.1297343,-15.442885799999999,,,,Sin gluten Canarias,Sin gluten Canarias
Mangia & Bevi,28.131413199999997,-15.4391842,,,,Sin gluten Canarias,Sin gluten Canarias
Chao Chao Noodles & Gyoza,28.103266599999998,-15.4149868,"C. San Pedro, 9, 35002 Las Palmas de Gran Canaria, Las Palmas",,,Sin gluten Canarias,Sin gluten Canarias
Sana Locura Gluten Free Bakery,28.4889396,-16.3170513,"C. Obispo Rey Redondo, 30, 38201 La Laguna, Santa Cruz de Tenerife",,,Sin gluten Canarias,Sin gluten Canarias
Lemon Love Café | Cafetería en Arrecife,28.9597117,-13.5496486,"C. Antonio Porlier Y Sopranis, 15, 35500 Arrecife, Las Palmas",,,Sin gluten Canarias,Sin gluten Canarias
Vive Libre,28.9223648,-13.641292199999999,,,,Sin gluten Canarias,Sin gluten Canarias
Casa Manolo,28.736772499999997,-13.8696232,"C. María González Carballo, 13, 35660 Corralejo, Las Palmas",,,Sin gluten Canarias,Sin gluten Canarias
Restaurante La Vaca Azul,28.684093599999997,-14.0117129,"Calle Requena, 9, 35650 El Cotillo, Las Palmas",,,Sin gluten Canarias,Sin gluten Canarias
Tsunami,28.6841311,-14.011241499999999,"cotillo, Calle muelle de los pescadores 3, 35650 El Cotillo, Las Palmas",,,Sin gluten Canarias,Sin gluten Canarias
"Las cazuelitas, El cotillo",28.6891397,-14.010830299999999,"Av. los Lagos, 42, 35650 El Cotillo, Las Palmas",,,Sin gluten Canarias,Sin gluten Canarias
Restaurante Happy Cactus El Cotillo - Vegan Food,28.6889871,-14.0108363,"Av. los Lagos, 42, Local 3 Edificio, 35650 Marfolin, Las Palmas",,,Sin gluten Canarias,Sin gluten Canarias
RESTAURANTE EL ROQUE LOS PESCADORES,28.6817136,-14.0113386,"C. la Caleta, 73, 35650 El Cotillo, Las Palmas",,,Sin gluten Canarias,Sin gluten Canarias
Panadería y Dulceria las Arenas,28.398948999999998,-16.544552499999998,"C. Tafuriaste, 16, 38400 Puerto de la Cruz, Santa Cruz de Tenerife",,,Sin gluten Canarias,Sin gluten Canarias
McDonald's,28.417299999999997,-16.5449,"Hotel Las Vegas, Av. de Cristobal Colón, 5, Bajos, 38400 Puerto de la Cruz, Santa Cruz de Tenerife",,,Sin gluten Canarias,Sin gluten Canarias
Compostelana Club Café,28.4162882,-16.5507538,"Pl. del Charco, s.n, 38400 Puerto de la Cruz, Santa Cruz de Tenerife",,,Sin gluten Canarias,Sin gluten Canarias
Roots Tenerife,28.4167728,-16.5455085,"C. de Zamora, 2A, 38400 Puerto de la Cruz, Santa Cruz de Tenerife",,,Sin gluten Canarias,Sin gluten Canarias
Tasca Ihuey,28.4166235,-16.5532313,"Calle San Felipe, 34, 38400 Puerto de la Cruz, Santa Cruz de Tenerife",,,Sin gluten Canarias,Sin gluten Canarias
Telepizza Puerto de la Cruz - Comida a Domicilio,28.414838399999997,-16.5478844,"C. de Valois, 18, 38400 Puerto de la Cruz, Santa Cruz de Tenerife",,,Sin gluten Canarias,Sin gluten Canarias
TOC-TOC Café (vegetariano/vegano/sin gluten),28.415967,-16.5532073,"Pl. 3 de abril, 38400 Puerto de la Cruz, Santa Cruz de Tenerife",,,Sin gluten Canarias,Sin gluten Canarias
"Mancha Mantel, Café & Mezcal",28.1485128,-15.4287101,"C. Herrería, 10, 35001 Las Palmas de Gran Canaria, Las Palmas",,,Sin gluten Canarias,Sin gluten Canarias
Bar Restaurante Roque Nublo,27.9763861,-15.5999033,,,,Sin gluten Canarias,Sin gluten Canarias
Pizzería Amore Mio.,28.9584732,-13.5564041,"Av. Fred Olsen, 1, 35500 Arrecife, Las Palmas",,,Sin gluten Canarias,Sin gluten Canarias
Cervecería El Dojo,27.9964922,-15.418179499999999,,,,Sin gluten Canarias,Sin gluten Canarias
Good Market Las Palmas,28.111024399999998,-15.4329419,,,,Sin gluten Canarias,Sin gluten Canarias
La Perpleja Bar.,28.1486816,-15.4308689,,,,Sin gluten Canarias,Sin gluten Canarias
RESTAURANTE 18 Grados sin gluten,28.1298033,-15.4469459,,,,Sin gluten Canarias,Sin gluten Canarias
Sin Gluten So Good,28.052104,-16.722463899999997,,,,Sin gluten Canarias,Sin gluten Canarias
Casa Credente,28.4895699,-16.3168147,,,,Sin gluten Canarias,Sin gluten Canarias
Be happy,28.1356546,-15.4328972,"C. Ruiz de Alda, 17, 35007 Las Palmas de Gran Canaria, Las Palmas",,,Sin gluten Canarias,Sin gluten Canarias
Asadero de Pollos y Freiduría Caña Dulce,28.113605399999997,-15.4309108,"C. Sor Simona, 24, 35012 Las Palmas de Gran Canaria, Las Palmas",,,Sin gluten Canarias,Sin gluten Canarias
Alimentarte,28.1029584,-15.4144268,"Calle Triana, 1, 35002 Las Palmas de Gran Canaria, Las Palmas",,,Sin gluten Canarias,Sin gluten Canarias
Travel bar,28.487609799999998,-16.3169212,"C. Herradores, 45, 38204 La Laguna, Santa Cruz de Tenerife",,,Sin gluten Canarias,Sin gluten Canarias
Coki Mesa y López,28.1348667,-15.434413699999999,"Pje. de Inglaterra, 5, 35007 Las Palmas de Gran Canaria, Las Palmas",,,Sin gluten Canarias,Sin gluten Canarias
Taberna Girón,28.3684659,-16.3627034,"Av. Maritima, 33, 38530 Candelaria, Santa Cruz de Tenerife",,,Sin gluten Canarias,Sin gluten Canarias
"Más Que Xurros Café, Mesa y López",28.131461899999998,-15.4392103,"Av. José Mesa y López, 76, 35010 Las Palmas de Gran Canaria, Las Palmas",,,Sin gluten Canarias,Sin gluten Canarias
Chiwawa Cantina La Cícer,28.1298705,-15.4458744,"C. Numancia, 73, 35010 Las Palmas de Gran Canaria, Las Palmas",,,Sin gluten Canarias,Sin gluten Canarias
Arepera Bar Millo y Millo,28.9542963,-13.6517716,"Av. Central, 39, 35572 Tías, Las Palmas",,,Sin gluten Canarias,Sin gluten Canarias
Kalma Café and Brunch,28.9239315,-13.672385499999999,"C. Reina Sofía, 42, 35510 Puerto del Carmen, Las Palmas",,,Sin gluten Canarias,Sin gluten Canarias
El Rincón de Guadalupe,28.465043299999998,-16.2510244,"Calle Antonio Domínguez Alfonso, Calz. la Noria, 38, 38003 Santa Cruz de Tenerife",,,Sin gluten Canarias,Sin gluten Canarias
Linda´s Café,28.9543541,-13.5915451,"C. Mayor, 12, 35509 Playa Honda, Las Palmas",,,Sin gluten Canarias,Sin gluten Canarias
Restaurante Granja El Tío Isidro,28.0239709,-15.4268982,"Cam. al Maipez, s/n, 35220 Valle de Jinamar, Las Palmas",,,Sin gluten Canarias,Sin gluten Canarias
Abora Coffe & Poke Bar,28.106041899999997,-15.417667699999999,"C. Viera y Clavijo, 5, 35002 Las Palmas de Gran Canaria, Las Palmas",,,Sin gluten Canarias,Sin gluten Canarias
La cuchara sana Venegas,28.1119234,-15.4187286,,,,Sin gluten Canarias,Sin gluten Canarias
Arakai comida ecológica,28.1324966,-15.4384363,,,,Sin gluten Canarias,Sin gluten Canarias
Ensaladonia,28.130229699999997,-15.446535599999999,,,,Sin gluten Canarias,Sin gluten Canarias
Cheese Las Palmas,28.130494,-15.4442831,"C. Secretario Padilla, 128, 35010 Las Palmas de Gran Canaria, Las Palmas",,,Sin gluten Canarias,Sin gluten Canarias
"Radisson Blu Resort & Spa, Gran Canaria Mogan",27.8257621,-15.757539999999999,,,,Sin gluten Canarias,Sin gluten Canarias
"Heladeria Artesanal Bolas, Helados Sin Gluten",28.6870311,-14.010326399999999,"Av. los Lagos, 35650 El Cotillo, Las Palmas",,,Sin gluten Canarias,Sin gluten Canarias
Sottovento,28.6874371,-14.0120869,"13 1, C. la Palma, 35650 El Cotillo, Las Palmas",,,Sin gluten Canarias,Sin gluten Canarias
Sin Gluten Raquel,28.073009799999998,-16.559558,,,,Sin gluten Canarias,Sin gluten Canarias
Sin Gluten La Laguna,28.485334199999997,-16.3144639,,,,Sin gluten Canarias,Sin gluten Canarias
Bar Playa El Boya,27.7524509,-15.6720922,,,,Sin gluten Canarias,Sin gluten Canarias
"C. Granados, 43",27.9241434,-15.433917099999999,,,,Sin gluten Canarias,Sin gluten Canarias
Restaurante Sibora,28.05745,-15.60689,,,,Sin gluten Canarias,Sin gluten Canarias
El Cardón Especias y Condimentos,28.147845999999998,-15.4292564,,,,Sin gluten Canarias,Sin gluten Canarias
El Toro Bueno,27.7589187,-15.568783799999999,,,,Sin gluten Canarias,Sin gluten Canarias
El Sobrino,27.995756,-15.396059699999999,,,,Sin gluten Canarias,Sin gluten Canarias
Asadero de Pollos y Freiduria Caña Dulce,28.0281083,-15.412213699999999,,,,Sin gluten Canarias,Sin gluten Canarias
Más Que Xurros café,27.8426692,-15.446624799999999,,,,Sin gluten Canarias,Sin gluten Canarias
200 Gramos Burger & Beverage Cicer,28.129457199999997,-15.446673299999999,,,,Sin gluten Canarias,Sin gluten Canarias
200 Gr. Burger & Beverage,28.1358048,-15.4328568,,,,Sin gluten Canarias,Sin gluten Canarias
200 Gramos Burger & Beverage San Fernando,27.7677806,-15.577308299999999,,,,Sin gluten Canarias,Sin gluten Canarias
PadThaiWok CC. Mogan Mall,27.7958522,-15.705302099999999,,,,Sin gluten Canarias,Sin gluten Canarias
PadThaiWok. Las Palmas de Gran Canaria,28.130506,-15.440237,,,,Sin gluten Canarias,Sin gluten Canarias
Ristorante Piccola Italia - Gran Canaria,27.7682501,-15.5481407,"Ristorante Piccola Italia, Local 156, 2ª Planta Centro Comercial, 35100 Maspalomas, Las Palmas",,,Sin gluten Canarias,Sin gluten Canarias
Casa Paché,28.416387699999998,-16.552478699999998,,,,Sin gluten Canarias,Sin gluten Canarias
Camino al Jamonal,28.1489042,-15.432036,"Calle Américo Vespucio, 11, 35009 Las Palmas de Gran Canaria, Las Palmas",,,Sin gluten Canarias,Sin gluten Canarias
Restaurante Non Solo Pizza,28.100761799999997,-15.4549001,,,,Sin gluten Canarias,Sin gluten Canarias
Mi Balconcito,28.0594102,-15.547358099999999,,,,Sin gluten Canarias,Sin gluten Canarias
Tasca El asunto los Parres,28.5037424,-16.192522,,,,Sin gluten Canarias,Sin gluten Canarias
La Tasca de Arana,28.487233099999997,-16.3151729,,,,Sin gluten Canarias,Sin gluten Canarias
Compostelana Avenida,28.418244299999998,-16.543781799999998,,,,Sin gluten Canarias,Sin gluten Canarias
Compostelana Plaza del Charco,28.416127799999998,-16.5503578,,,,Sin gluten Canarias,Sin gluten Canarias
Compostelana Plaza de España,28.4666061,-16.2479095,,,,Sin gluten Canarias,Sin gluten Canarias
Restaurante El Templete,28.046560999999997,-16.5378079,,,,Sin gluten Canarias,Sin gluten Canarias
La Mafia se sienta a la Mesa,28.467422,-16.250106,,,,Sin gluten Canarias,Sin gluten Canarias
Restaurante GOM,28.472257,-16.252630099999998,,,,Sin gluten Canarias,Sin gluten Canarias
Tahiti Tenerife Bar Cafetería Restaurate,28.4697356,-16.259289,,,,Sin gluten Canarias,Sin gluten Canarias
Asador El Rincón de Chasna,28.1503101,-16.632972,,,,Sin gluten Canarias,Sin gluten Canarias
Cuadra de San Diego,28.4524109,-16.456207199999998,,,,Sin gluten Canarias,Sin gluten Canarias
Restaurante Gran Tarajal SIN GLUTEN,28.3880792,-16.5095884,,,,Sin gluten Canarias,Sin gluten Canarias
Restaurante El Limón,28.416483699999997,-16.5481859,,,,Sin gluten Canarias,Sin gluten Canarias
Convivio,28.4705034,-16.254158999999998,,,,Sin gluten Canarias,Sin gluten Canarias
Cafetería Ébano,28.4347243,-16.4716913,,,,Sin gluten Canarias,Sin gluten Canarias
"Obrador Sin Gluten ""Las Arenas""",28.3985678,-16.544888099999998,,,,Sin gluten Canarias,Sin gluten Canarias
La Pasta Fresca de Anto y Roby,28.4632591,-16.251777099999998,,,,Sin gluten Canarias,Sin gluten Canarias
Poco A Poco,28.503549,-13.8673706,,,,Sin gluten Canarias,Sin gluten Canarias
Restaurante El Rinconcito de Doña Juanita,28.5000298,-13.8533964,,,,Sin gluten Canarias,Sin gluten Canarias
Asadero Las Brasas-Los Pollitos,28.0993101,-15.5535886,,,,Sin gluten Canarias,Sin gluten Canarias
Cafetería del Real,28.144294799999997,-15.431368099999998,,,,Sin gluten Canarias,Sin gluten Canarias
La Cuchara Sana,28.1029491,-15.4532159,,,,Sin gluten Canarias,Sin gluten Canarias
Restaurante El Pote,28.135023399999998,-15.4342896,,,,Sin gluten Canarias,Sin gluten Canarias
Antica Trattoria Di Verona,28.920284499999998,-13.646490499999999,,,,Sin gluten Canarias,Sin gluten Canarias
Secreto Energy,28.7227157,-13.8683217,,,,Sin gluten Canarias,Sin gluten Canarias
El Sombrero,28.740310899999997,-13.866641399999999,,,,Sin gluten Canarias,Sin gluten Canarias
Sanus Fuerteventura,28.735850199999998,-13.869737599999999,,,,Sin gluten Canarias,Sin gluten Canarias
Cokí Triana,28.106141899999997,-15.4180736,"Calle de Perdomo, 20, 35002 Las Palmas de Gran Canaria, Las Palmas",,,Sin gluten Canarias,Sin gluten Canarias
Restaurante El Guachinche,27.9039412,-15.4490549,"Calle Dr. Joaquín Artiles, 42, 35260 Agüimes, Las Palmas",,,Sin gluten Canarias,Sin gluten Canarias
Casa Malasia,28.1266358,-15.4395119,"Av. Federico García Lorca, 8, B, 35011 Las Palmas de Gran Canaria, Las Palmas",,,Sin gluten Canarias,Sin gluten Canarias
McDonald's,52.630181,4.747514,,Fast Food,CERTIFICADOS / CERTIFIED,GF Social Internacional,GF Social Internacional
McDonald's,52.615921,4.759056000000001,,Fast Food,CERTIFICADOS / CERTIFIED,GF Social Internacional,GF Social Internacional
McDonald's Alkmaar West,52.63448200000001,4.715538,,Fast Food,CERTIFICADOS / CERTIFIED,GF Social Internacional,GF Social Internacional
McDonald's Almelo Oost,52.3507551,6.676875099999998,,Fast Food,CERTIFICADOS / CERTIFIED,GF Social Internacional,GF Social Internacional
McDonald's Almelo Woonboulevard,52.340008000000005,6.642351000000001,,Fast Food,CERTIFICADOS / CERTIFIED,GF Social Internacional,GF Social Internacional
McDonald's,52.371984,5.220761,,Fast Food,CERTIFICADOS / CERTIFIED,GF Social Internacional,GF Social Internacional
McDonald's,52.1291097,4.6613204,,Fast Food,CERTIFICADOS / CERTIFIED,GF Social Internacional,GF Social Internacional
McDonald's,52.15387639999999,5.3852514000000005,,Fast Food,CERTIFICADOS / CERTIFIED,GF Social Internacional,GF Social Internacional
McDonald's Amersfoort De Wieken,52.1628228,5.4238841,,Fast Food,CERTIFICADOS / CERTIFIED,GF Social Internacional,GF Social Internacional
McDonald's,52.3557542,4.7728324,,Fast Food,CERTIFICADOS / CERTIFIED,GF Social Internacional,GF Social Internacional
McDonald's,52.31499179999999,4.953526099999999,,Fast Food,CERTIFICADOS / CERTIFIED,GF Social Internacional,GF Social Internacional
McDonald's,52.2123603,5.964726100000001,,Fast Food,CERTIFICADOS / CERTIFIED,GF Social Internacional,GF Social Internacional
McDonald's Apeldoorn Noord,52.23544030000001,5.975198300000001,,Fast Food,CERTIFICADOS / CERTIFIED,GF Social Internacional,GF Social Internacional
McDonald's,51.9645555,5.8911446,,Fast Food,CERTIFICADOS / CERTIFIED,GF Social Internacional,GF Social Internacional
McDonald's,51.9593115,5.895201999999999,,Fast Food,CERTIFICADOS / CERTIFIED,GF Social Internacional,GF Social Internacional
McDonald's,51.9756449,5.960051,,Fast Food,CERTIFICADOS / CERTIFIED,GF Social Internacional,GF Social Internacional
McDonald's Arnhem Rijnstraat,51.98160499999999,5.906274999999999,,Fast Food,CERTIFICADOS / CERTIFIED,GF Social Internacional,GF Social Internacional
McDonald's,53.02635839999999,6.5721476,,Fast Food,CERTIFICADOS / CERTIFIED,GF Social Internacional,GF Social Internacional
McDonald's,51.87017400000001,4.548227,,Fast Food,CERTIFICADOS / CERTIFIED,GF Social Internacional,GF Social Internacional
McDonald's,52.16913100000001,5.564831,,Fast Food,CERTIFICADOS / CERTIFIED,GF Social Internacional,GF Social Internacional
McDonald's,51.4865813,4.278801,,Fast Food,CERTIFICADOS / CERTIFIED,GF Social Internacional,GF Social Internacional
McDonald's,51.9817499,4.451010399999999,,Fast Food,CERTIFICADOS / CERTIFIED,GF Social Internacional,GF Social Internacional
McDonald's,51.50389300000001,5.413213,,Fast Food,CERTIFICADOS / CERTIFIED,GF Social Internacional,GF Social Internacional
McDonald's Bodegraven,52.068023999999994,4.740095,,Fast Food,CERTIFICADOS / CERTIFIED,GF Social Internacional,GF Social Internacional
McDonald's Boxmeer,51.6663881,5.9447515,,Fast Food,CERTIFICADOS / CERTIFIED,GF Social Internacional,GF Social Internacional
McDonald's,51.585905000000004,4.775850699999999,,Fast Food,CERTIFICADOS / CERTIFIED,GF Social Internacional,GF Social Internacional
McDonald's,51.5797951,4.836778699999999,,Fast Food,CERTIFICADOS / CERTIFIED,GF Social Internacional,GF Social Internacional
McDonald's,51.60025330000001,4.7385251,,Fast Food,CERTIFICADOS / CERTIFIED,GF Social Internacional,GF Social Internacional
McDonald's,51.5821867,4.7297582,,Fast Food,CERTIFICADOS / CERTIFIED,GF Social Internacional,GF Social Internacional
McDonald's,52.17174,4.9897571,,Fast Food,CERTIFICADOS / CERTIFIED,GF Social Internacional,GF Social Internacional
McDonald's Buikslotermeerplein,52.399046,4.936199999999999,,Fast Food,CERTIFICADOS / CERTIFIED,GF Social Internacional,GF Social Internacional
McDonald's,52.275674,5.162366,,Fast Food,CERTIFICADOS / CERTIFIED,GF Social Internacional,GF Social Internacional
McDonald's,51.95223010000001,4.5654534,,Fast Food,CERTIFICADOS / CERTIFIED,GF Social Internacional,GF Social Internacional
McDonald's,51.9255503,4.566316100000001,,Fast Food,CERTIFICADOS / CERTIFIED,GF Social Internacional,GF Social Internacional
McDonald's,52.32325050000001,4.956346400000001,,Fast Food,CERTIFICADOS / CERTIFIED,GF Social Internacional,GF Social Internacional
McDonald's,52.0104467,4.3607736,,Fast Food,CERTIFICADOS / CERTIFIED,GF Social Internacional,GF Social Internacional
McDonald's,52.0429847,4.2421052,,Fast Food,CERTIFICADOS / CERTIFIED,GF Social Internacional,GF Social Internacional
McDonald's,52.06668409999999,4.3194965,,Fast Food,CERTIFICADOS / CERTIFIED,GF Social Internacional,GF Social Internacional
McDonald's,52.9586248,4.760612699999999,,Fast Food,CERTIFICADOS / CERTIFIED,GF Social Internacional,GF Social Internacional
McDonald's McDrive,52.91621929999999,4.793301500000001,,Fast Food,CERTIFICADOS / CERTIFIED,GF Social Internacional,GF Social Internacional
McDonald's McDrive,52.2362076,6.178147600000001,,Fast Food,CERTIFICADOS / CERTIFIED,GF Social Internacional,GF Social Internacional
McDonald's Deventer de Scheg,52.2496739,6.204311800000001,,Fast Food,CERTIFICADOS / CERTIFIED,GF Social Internacional,GF Social Internacional
McDonald's,52.3326214,4.9789387,,Fast Food,CERTIFICADOS / CERTIFIED,GF Social Internacional,GF Social Internacional
McDonald's,51.945114999999994,6.310658999999999,,Fast Food,CERTIFICADOS / CERTIFIED,GF Social Internacional,GF Social Internacional
McDonald's,51.81325509999999,4.666971599999999,,Fast Food,CERTIFICADOS / CERTIFIED,GF Social Internacional,GF Social Internacional
McDonald's,51.81811039999999,4.7093471,,Fast Food,CERTIFICADOS / CERTIFIED,GF Social Internacional,GF Social Internacional
McDonald's,53.1087222,6.0814083,,Fast Food,CERTIFICADOS / CERTIFIED,GF Social Internacional,GF Social Internacional
McDonald's,53.09588609999999,6.1357078,,Fast Food,CERTIFICADOS / CERTIFIED,GF Social Internacional,GF Social Internacional
McDonald's Duiven,51.967345,5.989125,,Fast Food,CERTIFICADOS / CERTIFIED,GF Social Internacional,GF Social Internacional
McDonald's,51.1039931,5.862720700000001,,Fast Food,CERTIFICADOS / CERTIFIED,GF Social Internacional,GF Social Internacional
McDonald's Eindhoven Airport,51.4570032,5.392333499999999,,Fast Food,CERTIFICADOS / CERTIFIED,GF Social Internacional,GF Social Internacional
McDonald's,51.440986,5.476721,,Fast Food,CERTIFICADOS / CERTIFIED,GF Social Internacional,GF Social Internacional
McDonald's,51.439789,5.4782,,Fast Food,CERTIFICADOS / CERTIFIED,GF Social Internacional,GF Social Internacional
McDonald's,51.4696258,5.4768282,,Fast Food,CERTIFICADOS / CERTIFIED,GF Social Internacional,GF Social Internacional
McDonald's,52.771811,6.896665,,Fast Food,CERTIFICADOS / CERTIFIED,GF Social Internacional,GF Social Internacional
McDonald's,52.697519,5.273133,,Fast Food,CERTIFICADOS / CERTIFIED,GF Social Internacional,GF Social Internacional
McDonald's Enschede Woonplein,52.224927,6.8813830000000005,,Fast Food,CERTIFICADOS / CERTIFIED,GF Social Internacional,GF Social Internacional
McDonald's Enschede Centrum,52.218855,6.898792,,Fast Food,CERTIFICADOS / CERTIFIED,GF Social Internacional,GF Social Internacional
McDonald's Enschede Zuiderval,52.2060939,6.890500599999998,,Fast Food,CERTIFICADOS / CERTIFIED,GF Social Internacional,GF Social Internacional
McDonald's,52.31579,5.56463,,Fast Food,CERTIFICADOS / CERTIFIED,GF Social Internacional,GF Social Internacional
McDonald's,51.572495,4.6681119,,Fast Food,CERTIFICADOS / CERTIFIED,GF Social Internacional,GF Social Internacional
McDonald's,51.87989999999999,5.214106699999999,,Fast Food,CERTIFICADOS / CERTIFIED,GF Social Internacional,GF Social Internacional
McDonald's,51.482842,3.896325,,Fast Food,CERTIFICADOS / CERTIFIED,GF Social Internacional,GF Social Internacional
McDonald's Gorinchem,51.8413251,5.0052878,,Fast Food,CERTIFICADOS / CERTIFIED,GF Social Internacional,GF Social Internacional
McDonald's Groningen Sontplein,53.216292,6.584161000000003,,Fast Food,CERTIFICADOS / CERTIFIED,GF Social Internacional,GF Social Internacional
McDonald's,53.215956,6.557270999999999,,Fast Food,CERTIFICADOS / CERTIFIED,GF Social Internacional,GF Social Internacional
McDonald's Haarlem Casablancastraat,52.358473,4.655205,,Fast Food,CERTIFICADOS / CERTIFIED,GF Social Internacional,GF Social Internacional
McDonald's,52.379173200000004,4.633449699999999,,Fast Food,CERTIFICADOS / CERTIFIED,GF Social Internacional,GF Social Internacional
McDonald's,52.3538282,5.6304704,,Fast Food,CERTIFICADOS / CERTIFIED,GF Social Internacional,GF Social Internacional
McDonald's Hardinxveld-Giessendam,51.822632,4.80913,,Fast Food,CERTIFICADOS / CERTIFIED,GF Social Internacional,GF Social Internacional
McDonald's,53.1822395,5.462456800000001,,Fast Food,CERTIFICADOS / CERTIFIED,GF Social Internacional,GF Social Internacional
McDonald's Den Hoorn Harnaschpolder,52.0114668,4.316632300000001,,Fast Food,CERTIFICADOS / CERTIFIED,GF Social Internacional,GF Social Internacional
McDonald's Hazeldonk-Oost,51.49885279999999,4.743137700000001,,Fast Food,CERTIFICADOS / CERTIFIED,GF Social Internacional,GF Social Internacional
McDonald's,51.498494,4.740634,,Fast Food,CERTIFICADOS / CERTIFIED,GF Social Internacional,GF Social Internacional
McDonald's Heerde,52.37084000000001,6.022060400000001,,Fast Food,CERTIFICADOS / CERTIFIED,GF Social Internacional,GF Social Internacional
McDonald's,52.661821,4.812660999999999,,Fast Food,CERTIFICADOS / CERTIFIED,GF Social Internacional,GF Social Internacional
McDonald's,52.287076,6.764505000000001,,Fast Food,CERTIFICADOS / CERTIFIED,GF Social Internacional,GF Social Internacional
McDonald's Hengelo Zuid,52.24171399999999,6.763484999999999,,Fast Food,CERTIFICADOS / CERTIFIED,GF Social Internacional,GF Social Internacional
McDonald's,51.9444249,5.757098399999999,,Fast Food,CERTIFICADOS / CERTIFIED,GF Social Internacional,GF Social Internacional
McDonald's,52.275958,4.572571,,Fast Food,CERTIFICADOS / CERTIFIED,GF Social Internacional,GF Social Internacional
McDonald's,52.2256625,5.1764917,,Fast Food,CERTIFICADOS / CERTIFIED,GF Social Internacional,GF Social Internacional
McDonald's,52.2210285,5.144356500000001,,Fast Food,CERTIFICADOS / CERTIFIED,GF Social Internacional,GF Social Internacional
McDonald's Holten,52.2539282,6.4360322,,Fast Food,CERTIFICADOS / CERTIFIED,GF Social Internacional,GF Social Internacional
McDonald's,52.28946,4.723360200000002,,Fast Food,CERTIFICADOS / CERTIFIED,GF Social Internacional,GF Social Internacional
McDonald's,51.8744951,4.3580753,,Fast Food,CERTIFICADOS / CERTIFIED,GF Social Internacional,GF Social Internacional
McDonald's,52.64792749999999,5.033529100000001,,Fast Food,CERTIFICADOS / CERTIFIED,GF Social Internacional,GF Social Internacional
McDonald’s Hoorn Noord,52.68023650000001,5.083923,,Fast Food,CERTIFICADOS / CERTIFIED,GF Social Internacional,GF Social Internacional
McDonald's,52.11385139999999,5.260081,,Fast Food,CERTIFICADOS / CERTIFIED,GF Social Internacional,GF Social Internacional
McDonald's,52.01495060000001,5.062699500000001,,Fast Food,CERTIFICADOS / CERTIFIED,GF Social Internacional,GF Social Internacional
McDonald's,52.95853709999999,5.8117405,,Fast Food,CERTIFICADOS / CERTIFIED,GF Social Internacional,GF Social Internacional
McDonald's,52.5575071,5.884605199999999,,Fast Food,CERTIFICADOS / CERTIFIED,GF Social Internacional,GF Social Internacional
McDonald's McDrive,53.1792987,5.7971244,,Fast Food,CERTIFICADOS / CERTIFIED,GF Social Internacional,GF Social Internacional
McDonald's,52.16695359999999,4.4466632,,Fast Food,CERTIFICADOS / CERTIFIED,GF Social Internacional,GF Social Internacional
McDonald's Leiden Beestenmarkt,52.162859999999995,4.485041000000001,,Fast Food,CERTIFICADOS / CERTIFIED,GF Social Internacional,GF Social Internacional
McDonald's Leiden Donkersteeg,52.16003509999999,4.4911338,,Fast Food,CERTIFICADOS / CERTIFIED,GF Social Internacional,GF Social Internacional
McDonald's Leiderdorp,52.1603436,4.550203799999999,,Fast Food,CERTIFICADOS / CERTIFIED,GF Social Internacional,GF Social Internacional
McDonald's,52.103875,5.060231,,Fast Food,CERTIFICADOS / CERTIFIED,GF Social Internacional,GF Social Internacional
McDonald's,52.09026490000001,4.384237199999999,,Fast Food,CERTIFICADOS / CERTIFIED,GF Social Internacional,GF Social Internacional
McDonald's,52.482333399999995,5.5053933,,Fast Food,CERTIFICADOS / CERTIFIED,GF Social Internacional,GF Social Internacional
McDonald's,52.5227616,5.4389199,,Fast Food,CERTIFICADOS / CERTIFIED,GF Social Internacional,GF Social Internacional
McDonald's,52.1288601,5.035051200000001,,Fast Food,CERTIFICADOS / CERTIFIED,GF Social Internacional,GF Social Internacional
McDonald's,51.9697267,4.2120347,,Fast Food,CERTIFICADOS / CERTIFIED,GF Social Internacional,GF Social Internacional
McDonald's Maastricht Gronsveld,50.812366300000015,5.7214446,,Fast Food,CERTIFICADOS / CERTIFIED,GF Social Internacional,GF Social Internacional
McDonald's,50.8499489,5.6889291,,Fast Food,CERTIFICADOS / CERTIFIED,GF Social Internacional,GF Social Internacional
McDonald's,50.849585,5.700146999999998,,Fast Food,CERTIFICADOS / CERTIFIED,GF Social Internacional,GF Social Internacional
McDonald's,51.806369,5.852896,,Fast Food,CERTIFICADOS / CERTIFIED,GF Social Internacional,GF Social Internacional
McDonald's,52.694872,6.2050920000000005,,Fast Food,CERTIFICADOS / CERTIFIED,GF Social Internacional,GF Social Internacional
McDonald's,51.48311999999999,3.625049,,Fast Food,CERTIFICADOS / CERTIFIED,GF Social Internacional,GF Social Internacional
McDonald's Moordrecht,51.9994649,4.6517607,,Fast Food,CERTIFICADOS / CERTIFIED,GF Social Internacional,GF Social Internacional
McDonald’s,52.3226001,5.082514,,Fast Food,CERTIFICADOS / CERTIFIED,GF Social Internacional,GF Social Internacional
McDonald's,51.2775803,5.7395609000000025,,Fast Food,CERTIFICADOS / CERTIFIED,GF Social Internacional,GF Social Internacional
McDonald's,52.04934120000001,5.118090499999999,,Fast Food,CERTIFICADOS / CERTIFIED,GF Social Internacional,GF Social Internacional
McDonald's,52.04763750000001,5.087088200000001,,Fast Food,CERTIFICADOS / CERTIFIED,GF Social Internacional,GF Social Internacional
McDonald's,52.2405172,5.481891600000001,,Fast Food,CERTIFICADOS / CERTIFIED,GF Social Internacional,GF Social Internacional
McDonald's,51.8253997,5.803559999999999,,Fast Food,CERTIFICADOS / CERTIFIED,GF Social Internacional,GF Social Internacional
McDonald's Nijverdal/ Hellendoorn,52.3616993,6.509093099999999,,Fast Food,CERTIFICADOS / CERTIFIED,GF Social Internacional,GF Social Internacional
McDonald's Oldenzaal,52.285079,6.92852,,Fast Food,CERTIFICADOS / CERTIFIED,GF Social Internacional,GF Social Internacional
McDonald's,51.6737218,4.8243398,,Fast Food,CERTIFICADOS / CERTIFIED,GF Social Internacional,GF Social Internacional
McDonald's,51.5665517,4.4708066,,Fast Food,CERTIFICADOS / CERTIFIED,GF Social Internacional,GF Social Internacional
McDonald's Oosterhout,51.89228,5.830027099999998,,Fast Food,CERTIFICADOS / CERTIFIED,GF Social Internacional,GF Social Internacional
McDonald's,52.4858074,4.950998999999999,,Fast Food,CERTIFICADOS / CERTIFIED,GF Social Internacional,GF Social Internacional
McDonald's,51.87514799999999,4.60464,,Fast Food,CERTIFICADOS / CERTIFIED,GF Social Internacional,GF Social Internacional
McDonald's,52.0360112,4.316250099999999,,Fast Food,CERTIFICADOS / CERTIFIED,GF Social Internacional,GF Social Internacional
McDonald's Rijswijk Plaspoelpolder,52.03679459999999,4.335649299999999,,Fast Food,CERTIFICADOS / CERTIFIED,GF Social Internacional,GF Social Internacional
McDonald's,51.1939286,5.989874599999999,,Fast Food,CERTIFICADOS / CERTIFIED,GF Social Internacional,GF Social Internacional
McDonald's,51.535088,4.484500000000001,,Fast Food,CERTIFICADOS / CERTIFIED,GF Social Internacional,GF Social Internacional
McDonald's,51.86852140000001,4.453560500000001,,Fast Food,CERTIFICADOS / CERTIFIED,GF Social Internacional,GF Social Internacional
McDonald's Rotterdam Coolsingel 207,51.9181521,4.480202800000001,,Fast Food,CERTIFICADOS / CERTIFIED,GF Social Internacional,GF Social Internacional
McDonald's Rotterdam Coolsingel 44,51.9216181,4.4797287,,Fast Food,CERTIFICADOS / CERTIFIED,GF Social Internacional,GF Social Internacional
McDonald's,51.9103897,4.435441399999999,,Fast Food,CERTIFICADOS / CERTIFIED,GF Social Internacional,GF Social Internacional
McDonald's,51.8947722,4.531609,,Fast Food,CERTIFICADOS / CERTIFIED,GF Social Internacional,GF Social Internacional
McDonald's,51.8868124,4.490267600000001,,Fast Food,CERTIFICADOS / CERTIFIED,GF Social Internacional,GF Social Internacional
McDonald's,52.4256804,4.6467307,,Fast Food,CERTIFICADOS / CERTIFIED,GF Social Internacional,GF Social Internacional
McDonald's Sassenheim,52.2149151,4.514322999999999,,Fast Food,CERTIFICADOS / CERTIFIED,GF Social Internacional,GF Social Internacional
McDonald's,52.7821876,4.808852399999999,,Fast Food,CERTIFICADOS / CERTIFIED,GF Social Internacional,GF Social Internacional
McDonald's Airport Schiphol Lounge 2,52.3091073,4.7646974,,Fast Food,CERTIFICADOS / CERTIFIED,GF Social Internacional,GF Social Internacional
McDonald's,52.31096599999999,4.760685699999999,,Fast Food,CERTIFICADOS / CERTIFIED,GF Social Internacional,GF Social Internacional
McDonald's,52.32106499999999,4.792317,,Fast Food,CERTIFICADOS / CERTIFIED,GF Social Internacional,GF Social Internacional
McDonald's,50.99445499999999,5.842085,,Fast Food,CERTIFICADOS / CERTIFIED,GF Social Internacional,GF Social Internacional
McDonald's McDrive,53.0348619,5.6222694,,Fast Food,CERTIFICADOS / CERTIFIED,GF Social Internacional,GF Social Internacional
McDonald's,51.85963899999999,4.292684,,Fast Food,CERTIFICADOS / CERTIFIED,GF Social Internacional,GF Social Internacional
McDonald's,52.799268,6.120293999999999,,Fast Food,CERTIFICADOS / CERTIFIED,GF Social Internacional,GF Social Internacional
McDonald's Venlo Tegelen,51.35144460000001,6.152418700000001,,Fast Food,CERTIFICADOS / CERTIFIED,GF Social Internacional,GF Social Internacional
McDonalds’s Ter Borch,53.1958619,6.517369699999999,,Fast Food,CERTIFICADOS / CERTIFIED,GF Social Internacional,GF Social Internacional
McDonald's Uden McDrive,51.6708201,5.600813899999999,,Fast Food,CERTIFICADOS / CERTIFIED,GF Social Internacional,GF Social Internacional
McDonald's,51.5930309,5.1703111,,Fast Food,CERTIFICADOS / CERTIFIED,GF Social Internacional,GF Social Internacional
McDonald's,52.2558847,4.8252685,,Fast Food,CERTIFICADOS / CERTIFIED,GF Social Internacional,GF Social Internacional
McDonald's,52.09154179999999,5.1114708,,Fast Food,CERTIFICADOS / CERTIFIED,GF Social Internacional,GF Social Internacional
McDonald's,52.093419,5.116018000000001,,Fast Food,CERTIFICADOS / CERTIFIED,GF Social Internacional,GF Social Internacional
McDonald's,52.11433,5.1111851,,Fast Food,CERTIFICADOS / CERTIFIED,GF Social Internacional,GF Social Internacional
McDonald's,52.04305369999999,5.5564168,,Fast Food,CERTIFICADOS / CERTIFIED,GF Social Internacional,GF Social Internacional
McDonald's,51.436197,5.422234,,Fast Food,CERTIFICADOS / CERTIFIED,GF Social Internacional,GF Social Internacional
McDonald's,51.91749720000001,4.332528,,Fast Food,CERTIFICADOS / CERTIFIED,GF Social Internacional,GF Social Internacional
McDonald's Waardenburg,51.8315049,5.249541199999999,,Fast Food,CERTIFICADOS / CERTIFIED,GF Social Internacional,GF Social Internacional
McDonald's,52.010108,4.293758,,Fast Food,CERTIFICADOS / CERTIFIED,GF Social Internacional,GF Social Internacional
McDonald's Weert Centrum,51.254279,5.70648,,Fast Food,CERTIFICADOS / CERTIFIED,GF Social Internacional,GF Social Internacional
McDonald's,51.974326,6.703601,,Fast Food,CERTIFICADOS / CERTIFIED,GF Social Internacional,GF Social Internacional
McDonald's,52.07715420000001,4.904319700000001,,Fast Food,CERTIFICADOS / CERTIFIED,GF Social Internacional,GF Social Internacional
McDonald's,52.4536026,4.824059399999999,,Fast Food,CERTIFICADOS / CERTIFIED,GF Social Internacional,GF Social Internacional
McDonald's,52.42738379999999,4.820716500000001,,Fast Food,CERTIFICADOS / CERTIFIED,GF Social Internacional,GF Social Internacional
McDonald's,52.061131,4.487543,,Fast Food,CERTIFICADOS / CERTIFIED,GF Social Internacional,GF Social Internacional
McDonald's,52.044132,4.501720000000001,,Fast Food,CERTIFICADOS / CERTIFIED,GF Social Internacional,GF Social Internacional
McDonald's,52.5224281,6.1167705,,Fast Food,CERTIFICADOS / CERTIFIED,GF Social Internacional,GF Social Internacional
McDonald's,52.49631669999999,6.1166605,,Fast Food,CERTIFICADOS / CERTIFIED,GF Social Internacional,GF Social Internacional
McDonald's,51.7194739,5.335612199999999,,Fast Food,CERTIFICADOS / CERTIFIED,GF Social Internacional,GF Social Internacional
McDonald's,52.9806365,6.9648533,,Fast Food,CERTIFICADOS / CERTIFIED,GF Social Internacional,GF Social Internacional
Domino's Pizza - Abbots Langley,51.6985837,-0.4254813999999999,,Fast Food,CERTIFICADOS / CERTIFIED,GF Social Internacional,GF Social Internacional
Domino's Pizza - Aberdare,51.7020582,-3.4203989,,Fast Food,CERTIFICADOS / CERTIFIED,GF Social Internacional,GF Social Internacional
Domino's Pizza - Aberdeen - Bridge of Don,57.1914233,-2.1217004,,Fast Food,CERTIFICADOS / CERTIFIED,GF Social Internacional,GF Social Internacional
Domino's Pizza - Aberdeen - Cults,57.11807730000001,-2.1743592,,Fast Food,CERTIFICADOS / CERTIFIED,GF Social Internacional,GF Social Internacional
Domino's Pizza - Aberdeen - Kittybrewster,57.1617905,-2.1174784,,Fast Food,CERTIFICADOS / CERTIFIED,GF Social Internacional,GF Social Internacional
Domino's Pizza - Aberdeen - Lang Stracht,57.1515155,-2.1521539,,Fast Food,CERTIFICADOS / CERTIFIED,GF Social Internacional,GF Social Internacional
Domino's Pizza - Aberdeen - Torry,57.12960519999999,-2.091875599999999,,Fast Food,CERTIFICADOS / CERTIFIED,GF Social Internacional,GF Social Internacional
Domino's Pizza - Aberdeen - Westhill,57.1537086,-2.2784696,,Fast Food,CERTIFICADOS / CERTIFIED,GF Social Internacional,GF Social Internacional
Domino's Pizza - Abergavenny,51.8242696,-3.0179693,,Fast Food,CERTIFICADOS / CERTIFIED,GF Social Internacional,GF Social Internacional
Domino's Pizza - Aberystwyth,52.4147513,-4.081186199999999,,Fast Food,CERTIFICADOS / CERTIFIED,GF Social Internacional,GF Social Internacional
Domino's Pizza - Abingdon,51.66943220000001,-1.2916592,,Fast Food,CERTIFICADOS / CERTIFIED,GF Social Internacional,GF Social Internacional
Domino's Pizza - Accrington,53.7542273,-2.3690283,,Fast Food,CERTIFICADOS / CERTIFIED,GF Social Internacional,GF Social Internacional
Domino's Pizza - Addlestone,51.3719112,-0.4859074,,Fast Food,CERTIFICADOS / CERTIFIED,GF Social Internacional,GF Social Internacional
Domino's Pizza - Airdrie,55.86844139999999,-3.984951399999999,,Fast Food,CERTIFICADOS / CERTIFIED,GF Social Internacional,GF Social Internacional
Domino's Pizza - Aldershot,51.2483081,-0.7630880999999999,,Fast Food,CERTIFICADOS / CERTIFIED,GF Social Internacional,GF Social Internacional
Domino's Pizza - Aldridge,52.6040963,-1.9181062,,Fast Food,CERTIFICADOS / CERTIFIED,GF Social Internacional,GF Social Internacional
Domino's Pizza - Alfreton,53.097794,-1.3858588,,Fast Food,CERTIFICADOS / CERTIFIED,GF Social Internacional,GF Social Internacional
Domino's Pizza - Alloa,56.1142936,-3.7911242000000005,,Fast Food,CERTIFICADOS / CERTIFIED,GF Social Internacional,GF Social Internacional
Domino's Pizza - Alsager,53.09683159999999,-2.3026928,,Fast Food,CERTIFICADOS / CERTIFIED,GF Social Internacional,GF Social Internacional
Domino's Pizza - Alton,51.1493152,-0.9746855999999999,,Fast Food,CERTIFICADOS / CERTIFIED,GF Social Internacional,GF Social Internacional
Domino's Pizza - Altrincham - Broadheath,53.400893,-2.3530408,,Fast Food,CERTIFICADOS / CERTIFIED,GF Social Internacional,GF Social Internacional
Domino's Pizza - Altrincham - Central,53.3875186,-2.348666300000001,,Fast Food,CERTIFICADOS / CERTIFIED,GF Social Internacional,GF Social Internacional
Domino's Pizza - Alverstoke,50.7926379,-1.1500004,,Fast Food,CERTIFICADOS / CERTIFIED,GF Social Internacional,GF Social Internacional
Domino's Pizza - Amersham,51.67799939999999,-0.6058243999999999,,Fast Food,CERTIFICADOS / CERTIFIED,GF Social Internacional,GF Social Internacional
Domino's Pizza - Amesbury,51.17160149999999,-1.7799798,,Fast Food,CERTIFICADOS / CERTIFIED,GF Social Internacional,GF Social Internacional
Domino's Pizza - Ammanford,51.7930359,-3.9888083,,Fast Food,CERTIFICADOS / CERTIFIED,GF Social Internacional,GF Social Internacional
Domino's Pizza - Andover,51.2063172,-1.4800413,,Fast Food,CERTIFICADOS / CERTIFIED,GF Social Internacional,GF Social Internacional
Domino's Pizza - Antrim,54.7135727,-6.2148675,,Fast Food,CERTIFICADOS / CERTIFIED,GF Social Internacional,GF Social Internacional
Domino's Pizza - Arbroath,56.56630269999999,-2.608529,,Fast Food,CERTIFICADOS / CERTIFIED,GF Social Internacional,GF Social Internacional
Domino's Pizza - Armagh,54.347807499999995,-6.650855699999999,,Fast Food,CERTIFICADOS / CERTIFIED,GF Social Internacional,GF Social Internacional
Domino's Pizza - Ashford,51.15073009999999,0.8759566999999998,,Fast Food,CERTIFICADOS / CERTIFIED,GF Social Internacional,GF Social Internacional
Domino's Pizza - Ashford - South,51.1232598,0.8651278,,Fast Food,CERTIFICADOS / CERTIFIED,GF Social Internacional,GF Social Internacional
Domino's Pizza - Ashington,55.185550199999994,-1.587503299999999,,Fast Food,CERTIFICADOS / CERTIFIED,GF Social Internacional,GF Social Internacional
Domino's Pizza - Ashton-Under-Lyne,53.48682660000001,-2.0952982,,Fast Food,CERTIFICADOS / CERTIFIED,GF Social Internacional,GF Social Internacional
Domino's Pizza - Aylesbury - Cambridge Street,51.8186232,-0.8108647999999999,,Fast Food,CERTIFICADOS / CERTIFIED,GF Social Internacional,GF Social Internacional
Domino's Pizza - Aylesbury - Jansel Square,51.8059897,-0.7848748,,Fast Food,CERTIFICADOS / CERTIFIED,GF Social Internacional,GF Social Internacional
Domino's Pizza - Ayr,55.46853910000001,-4.6282327,,Fast Food,CERTIFICADOS / CERTIFIED,GF Social Internacional,GF Social Internacional
Domino's Pizza - Bagshot,51.36181079999999,-0.6922941999999999,,Fast Food,CERTIFICADOS / CERTIFIED,GF Social Internacional,GF Social Internacional
Domino's Pizza - Ballina,54.115152,-9.1517948,,Fast Food,CERTIFICADOS / CERTIFIED,GF Social Internacional,GF Social Internacional
Domino's Pizza - Ballyclare,54.7527901,-6.0023386,,Fast Food,CERTIFICADOS / CERTIFIED,GF Social Internacional,GF Social Internacional
Domino's Pizza - Ballymena,54.86534320000001,-6.280840399999999,,Fast Food,CERTIFICADOS / CERTIFIED,GF Social Internacional,GF Social Internacional
Domino's Pizza - Balsall Common,52.39211539999999,-1.6496769,,Fast Food,CERTIFICADOS / CERTIFIED,GF Social Internacional,GF Social Internacional
Domino's Pizza - Banbridge,54.3476142,-6.2713148,,Fast Food,CERTIFICADOS / CERTIFIED,GF Social Internacional,GF Social Internacional
Domino's Pizza - Banbury,52.0591113,-1.3401407,,Fast Food,CERTIFICADOS / CERTIFIED,GF Social Internacional,GF Social Internacional
Domino's Pizza - Bangor Ashbury,54.64827,-5.635583100000001,,Fast Food,CERTIFICADOS / CERTIFIED,GF Social Internacional,GF Social Internacional
Domino's Pizza - Bangor (Northern Ireland),54.65696330000001,-5.6740909,,Fast Food,CERTIFICADOS / CERTIFIED,GF Social Internacional,GF Social Internacional
Domino's Pizza - Bangor (Wales),53.2225656,-4.1326502,,Fast Food,CERTIFICADOS / CERTIFIED,GF Social Internacional,GF Social Internacional
Domino's Pizza - Barnsley,53.5524057,-1.4849732,,Fast Food,CERTIFICADOS / CERTIFIED,GF Social Internacional,GF Social Internacional
Domino's Pizza - Barnstaple,51.07773049999999,-4.064249100000001,,Fast Food,CERTIFICADOS / CERTIFIED,GF Social Internacional,GF Social Internacional
Domino's Pizza - Barrow-in-Furness - Walney Road,54.1235114,-3.239065199999999,,Fast Food,CERTIFICADOS / CERTIFIED,GF Social Internacional,GF Social Internacional
Domino's Pizza Dulce,54.11182579999999,-3.2007786,,Fast Food,CERTIFICADOS / CERTIFIED,GF Social Internacional,GF Social Internacional
Domino's Pizza - Barry,51.40447940000001,-3.2714695,,Fast Food,CERTIFICADOS / CERTIFIED,GF Social Internacional,GF Social Internacional
Domino's Pizza - Basildon,51.56910329999999,0.460498,,Fast Food,CERTIFICADOS / CERTIFIED,GF Social Internacional,GF Social Internacional
Domino's Pizza - Basildon - Laindon,51.5616919,0.42082620000000004,,Fast Food,CERTIFICADOS / CERTIFIED,GF Social Internacional,GF Social Internacional
Domino's Pizza - Basildon - Pitsea,51.5642245,0.5042485999999999,,Fast Food,CERTIFICADOS / CERTIFIED,GF Social Internacional,GF Social Internacional
Domino's Pizza - Basingstoke - Brighton Hill,51.24507129999999,-1.1141853,,Fast Food,CERTIFICADOS / CERTIFIED,GF Social Internacional,GF Social Internacional
Domino's Pizza - Basingstoke - Chineham,51.2835179,-1.0597162,,Fast Food,CERTIFICADOS / CERTIFIED,GF Social Internacional,GF Social Internacional
Domino's Pizza - Basingstoke - Town Centre,51.2622633,-1.0901757,,Fast Food,CERTIFICADOS / CERTIFIED,GF Social Internacional,GF Social Internacional
Domino's Pizza - Bath - London Road,51.390967,-2.3550907,,Fast Food,CERTIFICADOS / CERTIFIED,GF Social Internacional,GF Social Internacional
Domino's Pizza - Bath - Oldfield Park,51.3770125,-2.378278,,Fast Food,CERTIFICADOS / CERTIFIED,GF Social Internacional,GF Social Internacional
Domino's Pizza - Bathgate,55.90212260000001,-3.6430555000000004,,Fast Food,CERTIFICADOS / CERTIFIED,GF Social Internacional,GF Social Internacional
Domino's Pizza - Beccles,52.4562281,1.5651551,,Fast Food,CERTIFICADOS / CERTIFIED,GF Social Internacional,GF Social Internacional
Domino's Pizza - Bedford - Central,52.1357419,-0.47302230000000006,,Fast Food,CERTIFICADOS / CERTIFIED,GF Social Internacional,GF Social Internacional
Domino's Pizza - Bedford - Elms Parc,52.1451393,-0.4210272,,Fast Food,CERTIFICADOS / CERTIFIED,GF Social Internacional,GF Social Internacional
Domino's Pizza - Bedford - Kempston,52.1178397,-0.4949311999999999,,Fast Food,CERTIFICADOS / CERTIFIED,GF Social Internacional,GF Social Internacional
Domino's Pizza - Bedworth,52.4797275,-1.4724732,,Fast Food,CERTIFICADOS / CERTIFIED,GF Social Internacional,GF Social Internacional
Domino's Pizza - Belfast - East,54.5780696,-5.872641599999999,,Fast Food,CERTIFICADOS / CERTIFIED,GF Social Internacional,GF Social Internacional
Domino's Pizza - Eastpoint Entertainment Village,54.5894122,-5.821327599999999,,Fast Food,CERTIFICADOS / CERTIFIED,GF Social Internacional,GF Social Internacional
Domino's Pizza - Belfast - North,54.61601770000001,-5.937207900000001,,Fast Food,CERTIFICADOS / CERTIFIED,GF Social Internacional,GF Social Internacional
Domino's Pizza - Belfast - Saintfield Road,54.5576129,-5.9090979,,Fast Food,CERTIFICADOS / CERTIFIED,GF Social Internacional,GF Social Internacional
Domino's Pizza - Belfast - South,54.5877795,-5.936560599999999,,Fast Food,CERTIFICADOS / CERTIFIED,GF Social Internacional,GF Social Internacional
Domino's Pizza - Belfast - West,54.57571089999999,-5.977676599999999,,Fast Food,CERTIFICADOS / CERTIFIED,GF Social Internacional,GF Social Internacional
Domino's Pizza - Benfleet,51.56720450000001,0.5518799,,Fast Food,CERTIFICADOS / CERTIFIED,GF Social Internacional,GF Social Internacional
Domino's Pizza - Berkhamsted,51.7629033,-0.5716007000000001,,Fast Food,CERTIFICADOS / CERTIFIED,GF Social Internacional,GF Social Internacional
Domino's Pizza - Beverley,53.8451617,-0.4315073,,Fast Food,CERTIFICADOS / CERTIFIED,GF Social Internacional,GF Social Internacional
Domino's Pizza - Bexhill on Sea,50.8403191,0.4769997,,Fast Food,CERTIFICADOS / CERTIFIED,GF Social Internacional,GF Social Internacional
Domino's Pizza - Bicester,51.90658639999999,-1.1500374,,Fast Food,CERTIFICADOS / CERTIFIED,GF Social Internacional,GF Social Internacional
Domino's Pizza - Bicester - Kingsmere,51.8934051,-1.1693943000000002,,Fast Food,CERTIFICADOS / CERTIFIED,GF Social Internacional,GF Social Internacional
Domino's Pizza - Bideford,51.00959099999999,-4.239301499999999,,Fast Food,CERTIFICADOS / CERTIFIED,GF Social Internacional,GF Social Internacional
Domino's Pizza - Biggin Hill,51.308983,0.037361,,Fast Food,CERTIFICADOS / CERTIFIED,GF Social Internacional,GF Social Internacional
Domino's Pizza - Biggleswade,52.0871326,-0.2601722,,Fast Food,CERTIFICADOS / CERTIFIED,GF Social Internacional,GF Social Internacional
Domino's Pizza - Billericay,51.627971800000005,0.4190368,,Fast Food,CERTIFICADOS / CERTIFIED,GF Social Internacional,GF Social Internacional
Domino's Pizza - Bingham,52.95209020000001,-0.9505682,,Fast Food,CERTIFICADOS / CERTIFIED,GF Social Internacional,GF Social Internacional
Domino's Pizza - Bingley,53.84866539999999,-1.8382990999999997,,Fast Food,CERTIFICADOS / CERTIFIED,GF Social Internacional,GF Social Internacional
Domino's Pizza - Birchington,51.3745008,1.3062451,,Fast Food,CERTIFICADOS / CERTIFIED,GF Social Internacional,GF Social Internacional
Domino's Pizza - Birkenhead,53.3909189,-3.027993899999999,,Fast Food,CERTIFICADOS / CERTIFIED,GF Social Internacional,GF Social Internacional
Domino's Pizza - Birmingham - Castle Bromwich,52.5010087,-1.7714757,,Fast Food,CERTIFICADOS / CERTIFIED,GF Social Internacional,GF Social Internacional
Domino's Pizza - Birmingham - Central,52.4878239,-1.9053892,,Fast Food,CERTIFICADOS / CERTIFIED,GF Social Internacional,GF Social Internacional
Domino's Pizza - Birmingham - Edgbaston,52.4735591,-1.921622,,Fast Food,CERTIFICADOS / CERTIFIED,GF Social Internacional,GF Social Internacional
Domino's Pizza - Birmingham - Great Barr,52.54521099999999,-1.9334880000000003,,Fast Food,CERTIFICADOS / CERTIFIED,GF Social Internacional,GF Social Internacional
Domino's Pizza - Birmingham - Hall Green,52.4383584,-1.8472771,,Fast Food,CERTIFICADOS / CERTIFIED,GF Social Internacional,GF Social Internacional
Domino's Pizza - Birmingham - Kings Norton,52.415946,-1.9296715,,Fast Food,CERTIFICADOS / CERTIFIED,GF Social Internacional,GF Social Internacional
Domino's Pizza - Birmingham - Kingstanding,52.55301919999999,-1.8856141000000002,,Fast Food,CERTIFICADOS / CERTIFIED,GF Social Internacional,GF Social Internacional
Domino's Pizza - Birmingham - Northfield,52.4135865,-1.9725195000000002,,Fast Food,CERTIFICADOS / CERTIFIED,GF Social Internacional,GF Social Internacional
Domino's Pizza - Birmingham - Oldbury,52.4632957,-1.9981984,,Fast Food,CERTIFICADOS / CERTIFIED,GF Social Internacional,GF Social Internacional
Domino's Pizza - Birmingham - Rubery,52.3938238,-2.0164301,,Fast Food,CERTIFICADOS / CERTIFIED,GF Social Internacional,GF Social Internacional
Domino's Pizza - Birmingham - Selly Oak,52.44577270000002,-1.9327258,,Fast Food,CERTIFICADOS / CERTIFIED,GF Social Internacional,GF Social Internacional
Domino's Pizza - Birmingham - Sheldon,52.4432005,-1.7848619,,Fast Food,CERTIFICADOS / CERTIFIED,GF Social Internacional,GF Social Internacional
Domino's Pizza - Birmingham - Shirley,52.4138222,-1.828349099999999,,Fast Food,CERTIFICADOS / CERTIFIED,GF Social Internacional,GF Social Internacional
Domino's Pizza - Birmingham - Smethwick,52.485995,-1.9563898,,Fast Food,CERTIFICADOS / CERTIFIED,GF Social Internacional,GF Social Internacional
Domino's Pizza - Birmingham - Solihull Central,52.41457190000001,-1.7816056,,Fast Food,CERTIFICADOS / CERTIFIED,GF Social Internacional,GF Social Internacional
Domino's Pizza - Birmingham - Star City,52.50539939999999,-1.8566095,,Fast Food,CERTIFICADOS / CERTIFIED,GF Social Internacional,GF Social Internacional
Domino's Pizza - Birmingham - Yardley,52.46662679999999,-1.8095360999999992,,Fast Food,CERTIFICADOS / CERTIFIED,GF Social Internacional,GF Social Internacional
Domino's Pizza - Bishop Auckland,54.64019590000001,-1.6935002,,Fast Food,CERTIFICADOS / CERTIFIED,GF Social Internacional,GF Social Internacional
Domino's Pizza - Bishop's Stortford,51.873284,0.1589701,,Fast Food,CERTIFICADOS / CERTIFIED,GF Social Internacional,GF Social Internacional
Domino's Pizza - Blackburn,53.73572430000001,-2.4871643,,Fast Food,CERTIFICADOS / CERTIFIED,GF Social Internacional,GF Social Internacional
Domino's Pizza - Blackpool - Central,53.8152393,-3.0366213,,Fast Food,CERTIFICADOS / CERTIFIED,GF Social Internacional,GF Social Internacional
Domino's Pizza - Blackpool - North Shore,53.832712,-3.0406556,,Fast Food,CERTIFICADOS / CERTIFIED,GF Social Internacional,GF Social Internacional
Domino's Pizza - Blackpool - South Shore,53.80250660000001,-3.0279471,,Fast Food,CERTIFICADOS / CERTIFIED,GF Social Internacional,GF Social Internacional
Domino's Pizza - Blackpool - Squires Gate,53.77968689999999,-3.040036,,Fast Food,CERTIFICADOS / CERTIFIED,GF Social Internacional,GF Social Internacional
Domino's Pizza - Blackwood,51.67097049999999,-3.1949298,,Fast Food,CERTIFICADOS / CERTIFIED,GF Social Internacional,GF Social Internacional
Domino's Pizza - Blandford Forum,50.85617370000001,-2.1628675,,Fast Food,CERTIFICADOS / CERTIFIED,GF Social Internacional,GF Social Internacional
Domino's Pizza - Blaydon,54.9647678,-1.7130214,,Fast Food,CERTIFICADOS / CERTIFIED,GF Social Internacional,GF Social Internacional
Domino's Pizza - Blyth,55.1267175,-1.511096,,Fast Food,CERTIFICADOS / CERTIFIED,GF Social Internacional,GF Social Internacional
Domino's Pizza - Bodmin,50.4725219,-4.7209474,,Fast Food,CERTIFICADOS / CERTIFIED,GF Social Internacional,GF Social Internacional
Domino's Pizza - Bognor Regis,50.7858826,-0.6758563,,Fast Food,CERTIFICADOS / CERTIFIED,GF Social Internacional,GF Social Internacional
Domino's Pizza - Bolton - Central,53.5733401,-2.434189,,Fast Food,CERTIFICADOS / CERTIFIED,GF Social Internacional,GF Social Internacional
Domino's Pizza - Bolton - North,53.6019283,-2.4324366,,Fast Food,CERTIFICADOS / CERTIFIED,GF Social Internacional,GF Social Internacional
Domino's Pizza - Bolton - Westhoughton,53.54759600000001,-2.526475,,Fast Food,CERTIFICADOS / CERTIFIED,GF Social Internacional,GF Social Internacional
Domino's Pizza - Bonnybridge,56.001921700000004,-3.8898588,,Fast Food,CERTIFICADOS / CERTIFIED,GF Social Internacional,GF Social Internacional
Domino's Pizza - Bordon,51.1116571,-0.8629135,,Fast Food,CERTIFICADOS / CERTIFIED,GF Social Internacional,GF Social Internacional
Domino's Pizza - Borehamwood,51.65784120000001,-0.2719606000000001,,Fast Food,CERTIFICADOS / CERTIFIED,GF Social Internacional,GF Social Internacional
Domino's Pizza - Borough Green,51.292748,0.3027712999999999,,Fast Food,CERTIFICADOS / CERTIFIED,GF Social Internacional,GF Social Internacional
Domino's Pizza - Boston,52.9715521,-0.01831890000000001,,Fast Food,CERTIFICADOS / CERTIFIED,GF Social Internacional,GF Social Internacional
Domino's Pizza - Bournemouth - Lansdowne,50.7224841,-1.8655589000000001,,Fast Food,CERTIFICADOS / CERTIFIED,GF Social Internacional,GF Social Internacional
Domino's Pizza - Bournemouth - Kinson,50.76893179999999,-1.9029828,,Fast Food,CERTIFICADOS / CERTIFIED,GF Social Internacional,GF Social Internacional
Domino's Pizza - Bournemouth - Winton,50.744841,-1.8785796999999997,,Fast Food,CERTIFICADOS / CERTIFIED,GF Social Internacional,GF Social Internacional
Domino's Pizza - Brackley,52.02947649999999,-1.1469029,,Fast Food,CERTIFICADOS / CERTIFIED,GF Social Internacional,GF Social Internacional
Domino's Pizza - Bracknell,51.41656830000001,-0.7482331,,Fast Food,CERTIFICADOS / CERTIFIED,GF Social Internacional,GF Social Internacional
Domino's Pizza - Bradford - Buttershaw,53.7684226,-1.7630217,,Fast Food,CERTIFICADOS / CERTIFIED,GF Social Internacional,GF Social Internacional
Domino's Pizza - Bradford - Eccleshill,53.8167905,-1.7348404000000002,,Fast Food,CERTIFICADOS / CERTIFIED,GF Social Internacional,GF Social Internacional
Domino's Pizza - Bradford - Lidget Green,53.7973891,-1.7839639,,Fast Food,CERTIFICADOS / CERTIFIED,GF Social Internacional,GF Social Internacional
Domino's Pizza - Bradford-on-Avon,51.336755,-2.2520675,,Fast Food,CERTIFICADOS / CERTIFIED,GF Social Internacional,GF Social Internacional
Domino's Pizza - Braintree,51.88043239999999,0.5628565999999999,,Fast Food,CERTIFICADOS / CERTIFIED,GF Social Internacional,GF Social Internacional
Domino's Pizza - Brentwood,51.6197938,0.2992284,,Fast Food,CERTIFICADOS / CERTIFIED,GF Social Internacional,GF Social Internacional
Domino's Pizza - Bridgend - Parc Plaza,51.4940447,-3.5587816,,Fast Food,CERTIFICADOS / CERTIFIED,GF Social Internacional,GF Social Internacional
Domino's Pizza - Bridgend - Tremains Road,51.5040622,-3.5704793,,Fast Food,CERTIFICADOS / CERTIFIED,GF Social Internacional,GF Social Internacional
Domino's Pizza - Bridgwater,51.12920690000001,-2.9986602,,Fast Food,CERTIFICADOS / CERTIFIED,GF Social Internacional,GF Social Internacional
Domino's Pizza - Bridlington,54.0828337,-0.1892188,,Fast Food,CERTIFICADOS / CERTIFIED,GF Social Internacional,GF Social Internacional
Domino's Pizza - Bridport,50.733558,-2.7621441,,Fast Food,CERTIFICADOS / CERTIFIED,GF Social Internacional,GF Social Internacional
Domino's Pizza - Brighouse,53.70231150000001,-1.7812304,,Fast Food,CERTIFICADOS / CERTIFIED,GF Social Internacional,GF Social Internacional
Domino's Pizza - Brighton - London Road,50.83251610000001,-0.1378959,,Fast Food,CERTIFICADOS / CERTIFIED,GF Social Internacional,GF Social Internacional
Domino's Pizza - Brighton - Moulsecoomb,50.8522621,-0.1040312,,Fast Food,CERTIFICADOS / CERTIFIED,GF Social Internacional,GF Social Internacional
Domino's Pizza - Brighton - Patcham,50.86394489999999,-0.1449425,,Fast Food,CERTIFICADOS / CERTIFIED,GF Social Internacional,GF Social Internacional
Domino's Pizza - Brighton - St Georges Place,50.8278444,-0.1356468,,Fast Food,CERTIFICADOS / CERTIFIED,GF Social Internacional,GF Social Internacional
Domino's Pizza - Bristol - Bedminster,51.4435198,-2.594117,,Fast Food,CERTIFICADOS / CERTIFIED,GF Social Internacional,GF Social Internacional
Domino's Pizza - Bristol - Bradley Stoke,51.5357396,-2.5499105,,Fast Food,CERTIFICADOS / CERTIFIED,GF Social Internacional,GF Social Internacional
Domino's Pizza - Brislington,51.431811,-2.5465387,,Fast Food,CERTIFICADOS / CERTIFIED,GF Social Internacional,GF Social Internacional
Domino's Pizza - Bristol - City Centre,51.4535178,-2.595931299999999,,Fast Food,CERTIFICADOS / CERTIFIED,GF Social Internacional,GF Social Internacional
Domino's Pizza - Bristol - Emerson's Green,51.4925789,-2.4748322000000003,,Fast Food,CERTIFICADOS / CERTIFIED,GF Social Internacional,GF Social Internacional
Domino's Pizza - Bristol - Filton,51.5020574,-2.5794914,,Fast Food,CERTIFICADOS / CERTIFIED,GF Social Internacional,GF Social Internacional
Domino's Pizza - Bristol - Fishponds,51.48195579999999,-2.5263399,,Fast Food,CERTIFICADOS / CERTIFIED,GF Social Internacional,GF Social Internacional
Domino's Pizza - Bristol - Gloucester Road,51.4851322,-2.5859239,,Fast Food,CERTIFICADOS / CERTIFIED,GF Social Internacional,GF Social Internacional
Domino's Pizza - Bristol - Hengrove,51.41664129999999,-2.5867571,,Fast Food,CERTIFICADOS / CERTIFIED,GF Social Internacional,GF Social Internacional
Domino's Pizza - Bristol - Keynsham,51.41365399999999,-2.482294199999999,,Fast Food,CERTIFICADOS / CERTIFIED,GF Social Internacional,GF Social Internacional
Domino's Pizza - Bristol - Kingswood,51.4628371,-2.5110042,,Fast Food,CERTIFICADOS / CERTIFIED,GF Social Internacional,GF Social Internacional
Domino's Pizza - Bristol - Nailsea,51.432343700000004,-2.759348,,Fast Food,CERTIFICADOS / CERTIFIED,GF Social Internacional,GF Social Internacional
Domino's Pizza - Portishead,51.48487120000001,-2.7687184,,Fast Food,CERTIFICADOS / CERTIFIED,GF Social Internacional,GF Social Internacional
Domino's Pizza - Bristol - Redfield,51.4594776,-2.5518658,,Fast Food,CERTIFICADOS / CERTIFIED,GF Social Internacional,GF Social Internacional
Domino's Pizza - Bristol - Stoke Bishop,51.48634209999999,-2.642006499999999,,Fast Food,CERTIFICADOS / CERTIFIED,GF Social Internacional,GF Social Internacional
Domino's Pizza - Bristol - Whiteladies,51.4646699,-2.6093876,,Fast Food,CERTIFICADOS / CERTIFIED,GF Social Internacional,GF Social Internacional
Domino's Pizza - Briton Ferry,51.6352158,-3.8179929000000006,,Fast Food,CERTIFICADOS / CERTIFIED,GF Social Internacional,GF Social Internacional
Domino's Pizza - Bromborough,53.31938530000001,-2.9659417000000006,,Fast Food,CERTIFICADOS / CERTIFIED,GF Social Internacional,GF Social Internacional
Domino's Pizza - Bromsgrove,52.33680409999999,-2.058513099999999,,Fast Food,CERTIFICADOS / CERTIFIED,GF Social Internacional,GF Social Internacional
Domino's Pizza - Buckshaw Village,53.6759818,-2.654245,,Fast Food,CERTIFICADOS / CERTIFIED,GF Social Internacional,GF Social Internacional
Domino's Pizza - Burgess Hill,50.95485589999999,-0.1280168,,Fast Food,CERTIFICADOS / CERTIFIED,GF Social Internacional,GF Social Internacional
Domino's Pizza - Burnham,51.53285,-0.658042,,Fast Food,CERTIFICADOS / CERTIFIED,GF Social Internacional,GF Social Internacional
Domino's Pizza - Burnham on Crouch,51.6268368,0.8153564999999998,,Fast Food,CERTIFICADOS / CERTIFIED,GF Social Internacional,GF Social Internacional
Domino's Pizza - Burnham-On-Sea,51.23833270000001,-2.9974224,,Fast Food,CERTIFICADOS / CERTIFIED,GF Social Internacional,GF Social Internacional
Domino's Pizza - Burnley,53.7920204,-2.2391553,,Fast Food,CERTIFICADOS / CERTIFIED,GF Social Internacional,GF Social Internacional
Domino's Pizza - Burntwood,52.681293100000005,-1.9341313000000002,,Fast Food,CERTIFICADOS / CERTIFIED,GF Social Internacional,GF Social Internacional
Domino's Pizza - Burton Latimer,52.3640912,-0.6793576000000001,,Fast Food,CERTIFICADOS / CERTIFIED,GF Social Internacional,GF Social Internacional
Domino's Pizza - Burton-Upon-Trent - Horninglow,52.82163329999999,-1.6416198,,Fast Food,CERTIFICADOS / CERTIFIED,GF Social Internacional,GF Social Internacional
Domino's Pizza - Burton-Upon-Trent,52.8035561,-1.6321302,,Fast Food,CERTIFICADOS / CERTIFIED,GF Social Internacional,GF Social Internacional
Domino's Pizza - Bury,53.5927428,-2.311429299999999,,Fast Food,CERTIFICADOS / CERTIFIED,GF Social Internacional,GF Social Internacional
Domino's Pizza - Bury St Edmunds,52.250347500000004,0.7115838999999998,,Fast Food,CERTIFICADOS / CERTIFIED,GF Social Internacional,GF Social Internacional
Domino's Pizza - Bushey Heath,51.63474889999999,-0.3430891,,Fast Food,CERTIFICADOS / CERTIFIED,GF Social Internacional,GF Social Internacional
Domino's Pizza - Buxton,53.259947,-1.9141885000000003,,Fast Food,CERTIFICADOS / CERTIFIED,GF Social Internacional,GF Social Internacional
Domino's Pizza - Caerphilly,51.57892210000001,-3.2185442,,Fast Food,CERTIFICADOS / CERTIFIED,GF Social Internacional,GF Social Internacional
Domino's Pizza - Caerphilly - Castle View,51.5709512,-3.2420937,,Fast Food,CERTIFICADOS / CERTIFIED,GF Social Internacional,GF Social Internacional
Domino's Pizza - Caldicot,51.5906513,-2.7525389,,Fast Food,CERTIFICADOS / CERTIFIED,GF Social Internacional,GF Social Internacional
Domino's Pizza - Calne,51.4399542,-2.0039669,,Fast Food,CERTIFICADOS / CERTIFIED,GF Social Internacional,GF Social Internacional
Domino's Pizza - Glenrothes,56.1950434,-3.1992688,,Fast Food,CERTIFICADOS / CERTIFIED,GF Social Internacional,GF Social Internacional
Domino's Pizza - Glossop,53.44280310000001,-1.9488092000000001,,Fast Food,CERTIFICADOS / CERTIFIED,GF Social Internacional,GF Social Internacional
Domino's Pizza - Gloucester - Barnwood,51.8625572,-2.2152066,,Fast Food,CERTIFICADOS / CERTIFIED,GF Social Internacional,GF Social Internacional
Domino's Pizza - Gloucester - Brockworth,51.84794100000001,-2.1715347,,Fast Food,CERTIFICADOS / CERTIFIED,GF Social Internacional,GF Social Internacional
Domino's Pizza - Gloucester - Central,51.8733565,-2.2466149,,Fast Food,CERTIFICADOS / CERTIFIED,GF Social Internacional,GF Social Internacional
Domino's Pizza - Gloucester - Quedgeley,51.826003,-2.2752687,,Fast Food,CERTIFICADOS / CERTIFIED,GF Social Internacional,GF Social Internacional
Domino's Pizza - Godalming,51.18479809999999,-0.6166573,,Fast Food,CERTIFICADOS / CERTIFIED,GF Social Internacional,GF Social Internacional
Domino's Pizza - Goole,53.7043231,-0.8735733999999999,,Fast Food,CERTIFICADOS / CERTIFIED,GF Social Internacional,GF Social Internacional
Domino's Pizza - Goring-by-Sea,50.81241229999999,-0.4208934999999999,,Fast Food,CERTIFICADOS / CERTIFIED,GF Social Internacional,GF Social Internacional
Domino's Pizza - Gorleston,52.57978190000001,1.7283357,,Fast Food,CERTIFICADOS / CERTIFIED,GF Social Internacional,GF Social Internacional
Domino's Pizza - Gorseinon,51.667789,-4.0246704,,Fast Food,CERTIFICADOS / CERTIFIED,GF Social Internacional,GF Social Internacional
Domino's Pizza - Grantham,52.9042837,-0.6354586999999999,,Fast Food,CERTIFICADOS / CERTIFIED,GF Social Internacional,GF Social Internacional
Domino's Pizza - Gravesend - East,51.4347695,0.3909378000000001,,Fast Food,CERTIFICADOS / CERTIFIED,GF Social Internacional,GF Social Internacional
Domino's Pizza - Grays,51.48405930000002,0.3357129,,Fast Food,CERTIFICADOS / CERTIFIED,GF Social Internacional,GF Social Internacional
Domino's Pizza - Great Dunmow,51.8685236,0.3668619,,Fast Food,CERTIFICADOS / CERTIFIED,GF Social Internacional,GF Social Internacional
Domino's Pizza - Great Harwood,53.7859754,-2.403030199999999,,Fast Food,CERTIFICADOS / CERTIFIED,GF Social Internacional,GF Social Internacional
Domino's Pizza - Great Yarmouth,52.6052616,1.7286855000000003,,Fast Food,CERTIFICADOS / CERTIFIED,GF Social Internacional,GF Social Internacional
Domino's Pizza - Greenock,55.9477164,-4.752271599999999,,Fast Food,CERTIFICADOS / CERTIFIED,GF Social Internacional,GF Social Internacional
Domino's Pizza - Grimsby - Central,53.5707908,-0.08167759999999999,,Fast Food,CERTIFICADOS / CERTIFIED,GF Social Internacional,GF Social Internacional
Domino's Pizza - Grimsby - West,53.55100479999999,-0.1254056,,Fast Food,CERTIFICADOS / CERTIFIED,GF Social Internacional,GF Social Internacional
Domino's Pizza - Guildford,51.2449675,-0.5766071,,Fast Food,CERTIFICADOS / CERTIFIED,GF Social Internacional,GF Social Internacional
Domino's Pizza - Hadleigh,51.552513,0.6103007999999999,,Fast Food,CERTIFICADOS / CERTIFIED,GF Social Internacional,GF Social Internacional
Domino's Pizza - Hailsham,50.864008,0.2589214,,Fast Food,CERTIFICADOS / CERTIFIED,GF Social Internacional,GF Social Internacional
Domino's Pizza - Halesowen,52.453196899999995,-2.0614897,,Fast Food,CERTIFICADOS / CERTIFIED,GF Social Internacional,GF Social Internacional
Domino's Pizza - Halifax,53.7211874,-1.8599867999999997,,Fast Food,CERTIFICADOS / CERTIFIED,GF Social Internacional,GF Social Internacional
Domino's Pizza - Halstead,51.9445348,0.6372418,,Fast Food,CERTIFICADOS / CERTIFIED,GF Social Internacional,GF Social Internacional
Domino's Pizza - Hamilton,55.7727012,-4.0371634,,Fast Food,CERTIFICADOS / CERTIFIED,GF Social Internacional,GF Social Internacional
Domino's Pizza - Harlow - Old Town,51.78221130000001,0.1328835,,Fast Food,CERTIFICADOS / CERTIFIED,GF Social Internacional,GF Social Internacional
Domino's Pizza - Harlow - Central,51.7701905,0.09243640000000002,,Fast Food,CERTIFICADOS / CERTIFIED,GF Social Internacional,GF Social Internacional
Domino's Pizza - Harpenden,51.8152312,-0.35318730000000004,,Fast Food,CERTIFICADOS / CERTIFIED,GF Social Internacional,GF Social Internacional
Domino's Pizza - Harrogate - East,53.995991,-1.5148524,,Fast Food,CERTIFICADOS / CERTIFIED,GF Social Internacional,GF Social Internacional
Domino's Pizza - Harrogate - West,53.9777345,-1.5338249,,Fast Food,CERTIFICADOS / CERTIFIED,GF Social Internacional,GF Social Internacional
Domino's Pizza - Hartlepool - Bishop Cuthbert,54.7070814,-1.2490373,,Fast Food,CERTIFICADOS / CERTIFIED,GF Social Internacional,GF Social Internacional
Domino's Pizza - Hartlepool - Central,54.6813372,-1.216349,,Fast Food,CERTIFICADOS / CERTIFIED,GF Social Internacional,GF Social Internacional
Domino's Pizza - Haslemere,51.0878626,-0.7272359000000002,,Fast Food,CERTIFICADOS / CERTIFIED,GF Social Internacional,GF Social Internacional
Domino's Pizza - Haslingden,53.70458599999999,-2.3261883,,Fast Food,CERTIFICADOS / CERTIFIED,GF Social Internacional,GF Social Internacional
Domino's Pizza - Hastings,50.8572234,0.5768989,,Fast Food,CERTIFICADOS / CERTIFIED,GF Social Internacional,GF Social Internacional
Domino's Pizza - Hastings - Ore,50.872532,0.6087551,,Fast Food,CERTIFICADOS / CERTIFIED,GF Social Internacional,GF Social Internacional
Domino's Pizza - Hatfield,51.7638191,-0.2403102,,Fast Food,CERTIFICADOS / CERTIFIED,GF Social Internacional,GF Social Internacional
Domino's Pizza - Havant,50.85150879999999,-0.9848874,,Fast Food,CERTIFICADOS / CERTIFIED,GF Social Internacional,GF Social Internacional
Domino's Pizza - Haverhill,52.088308,0.4102335,,Fast Food,CERTIFICADOS / CERTIFIED,GF Social Internacional,GF Social Internacional
Domino's Pizza - Haydock,53.4693051,-2.6563962,,Fast Food,CERTIFICADOS / CERTIFIED,GF Social Internacional,GF Social Internacional
Domino's Pizza - Hayle,50.1853469,-5.421010000000001,,Fast Food,CERTIFICADOS / CERTIFIED,GF Social Internacional,GF Social Internacional
Domino's Pizza - Haywards Heath,51.00583760000001,-0.1029087,,Fast Food,CERTIFICADOS / CERTIFIED,GF Social Internacional,GF Social Internacional
Domino's Pizza - Heanor,53.0133046,-1.3528142,,Fast Food,CERTIFICADOS / CERTIFIED,GF Social Internacional,GF Social Internacional
Domino's Pizza - Heathfield,50.97096209999999,0.2487895000000001,,Fast Food,CERTIFICADOS / CERTIFIED,GF Social Internacional,GF Social Internacional
Domino's Pizza - Heckmondwike,53.7085775,-1.677443,,Fast Food,CERTIFICADOS / CERTIFIED,GF Social Internacional,GF Social Internacional
Domino's Pizza - Helston,50.100738,-5.2760204,,Fast Food,CERTIFICADOS / CERTIFIED,GF Social Internacional,GF Social Internacional
Domino's Pizza - Hemel Hempstead - Central,51.750457,-0.4734934,,Fast Food,CERTIFICADOS / CERTIFIED,GF Social Internacional,GF Social Internacional
Domino's Pizza - Hemel Hempstead - East,51.7536227,-0.4375365999999999,,Fast Food,CERTIFICADOS / CERTIFIED,GF Social Internacional,GF Social Internacional
Domino's Pizza - Hemsworth,53.61219910000001,-1.3534321,,Fast Food,CERTIFICADOS / CERTIFIED,GF Social Internacional,GF Social Internacional
Domino's Pizza - Henley-on-Thames,51.5391498,-0.9046618999999999,,Fast Food,CERTIFICADOS / CERTIFIED,GF Social Internacional,GF Social Internacional
Domino's Pizza - Hereford,52.04630909999999,-2.7243214,,Fast Food,CERTIFICADOS / CERTIFIED,GF Social Internacional,GF Social Internacional
Domino's Pizza - Herne Bay,51.3711157,1.1251024,,Fast Food,CERTIFICADOS / CERTIFIED,GF Social Internacional,GF Social Internacional
Domino's Pizza - Hertford,51.7978196,-0.07535639999999999,,Fast Food,CERTIFICADOS / CERTIFIED,GF Social Internacional,GF Social Internacional
Domino's Pizza - Heswall,53.3290398,-3.0996214,,Fast Food,CERTIFICADOS / CERTIFIED,GF Social Internacional,GF Social Internacional
Domino's Pizza - Heywood,53.59385129999999,-2.2243827,,Fast Food,CERTIFICADOS / CERTIFIED,GF Social Internacional,GF Social Internacional
Domino's Pizza - High Wycombe - Central,51.6296738,-0.7484889999999998,,Fast Food,CERTIFICADOS / CERTIFIED,GF Social Internacional,GF Social Internacional
Domino's Pizza - High Wycombe - Hazlemere,51.6514229,-0.7135161000000001,,Fast Food,CERTIFICADOS / CERTIFIED,GF Social Internacional,GF Social Internacional
Domino's Pizza - High Wycombe - Loudwater,51.6102849,-0.6996519000000001,,Fast Food,CERTIFICADOS / CERTIFIED,GF Social Internacional,GF Social Internacional
Domino's Pizza - Hinckley,52.5394131,-1.3754033,,Fast Food,CERTIFICADOS / CERTIFIED,GF Social Internacional,GF Social Internacional
Domino's Pizza - Hindhead,51.1224339,-0.7537699999999999,,Fast Food,CERTIFICADOS / CERTIFIED,GF Social Internacional,GF Social Internacional
Domino's Pizza - Hitchin,51.9528673,-0.275829,,Fast Food,CERTIFICADOS / CERTIFIED,GF Social Internacional,GF Social Internacional
Domino's Pizza - Hockley,51.6015203,0.656123,,Fast Food,CERTIFICADOS / CERTIFIED,GF Social Internacional,GF Social Internacional
Domino's Pizza - Hoddesdon,51.7599612,-0.0115982,,Fast Food,CERTIFICADOS / CERTIFIED,GF Social Internacional,GF Social Internacional
Domino's Pizza - Horley,51.1720464,-0.162428,,Fast Food,CERTIFICADOS / CERTIFIED,GF Social Internacional,GF Social Internacional
Domino's Pizza - Horsham,51.0651817,-0.3303834,,Fast Food,CERTIFICADOS / CERTIFIED,GF Social Internacional,GF Social Internacional
Domino's Pizza - Horsham - Southwater,51.0248333,-0.3512616,,Fast Food,CERTIFICADOS / CERTIFIED,GF Social Internacional,GF Social Internacional
Domino's Pizza - Horwich,53.59389480000001,-2.5445646,,Fast Food,CERTIFICADOS / CERTIFIED,GF Social Internacional,GF Social Internacional
Domino's Pizza - Houghton-le-Spring,54.8451382,-1.4718109000000001,,Fast Food,CERTIFICADOS / CERTIFIED,GF Social Internacional,GF Social Internacional
Domino's Pizza - Hove,50.839131599999995,-0.1784184,,Fast Food,CERTIFICADOS / CERTIFIED,GF Social Internacional,GF Social Internacional
Domino's Pizza - Hoylake,53.39097779999999,-3.1790226,,Fast Food,CERTIFICADOS / CERTIFIED,GF Social Internacional,GF Social Internacional
Domino's Pizza - Huddersfield - Central,53.650522800000005,-1.7838686,,Fast Food,CERTIFICADOS / CERTIFIED,GF Social Internacional,GF Social Internacional
Domino's Pizza - Huddersfield - Honley,53.6046223,-1.7884344,,Fast Food,CERTIFICADOS / CERTIFIED,GF Social Internacional,GF Social Internacional
Domino's Pizza - Huddersfield - Wakefield Road,53.6452189,-1.7371302,,Fast Food,CERTIFICADOS / CERTIFIED,GF Social Internacional,GF Social Internacional
Domino's Pizza - Hull - Beverley Road,53.7675335,-0.3541425,,Fast Food,CERTIFICADOS / CERTIFIED,GF Social Internacional,GF Social Internacional
Domino's Pizza - Hull - City Centre,53.7438721,-0.3441219,,Fast Food,CERTIFICADOS / CERTIFIED,GF Social Internacional,GF Social Internacional
Domino's Pizza - Hull - County Road South,53.7549049,-0.3994596,,Fast Food,CERTIFICADOS / CERTIFIED,GF Social Internacional,GF Social Internacional
Domino's Pizza - Hull - Holderness Road,53.7644604,-0.2937617,,Fast Food,CERTIFICADOS / CERTIFIED,GF Social Internacional,GF Social Internacional
Domino's Pizza - Huntingdon,52.3312323,-0.183784,,Fast Food,CERTIFICADOS / CERTIFIED,GF Social Internacional,GF Social Internacional
Domino's Pizza - Hutton,51.6333862,0.3558884,,Fast Food,CERTIFICADOS / CERTIFIED,GF Social Internacional,GF Social Internacional
Domino's Pizza - Ilkeston,52.978193,-1.309541,,Fast Food,CERTIFICADOS / CERTIFIED,GF Social Internacional,GF Social Internacional
Domino's Pizza - Ilkley,53.92442069999999,-1.8196049,,Fast Food,CERTIFICADOS / CERTIFIED,GF Social Internacional,GF Social Internacional
Domino's Pizza - Inverness - City Centre,57.4803376,-4.2262515,,Fast Food,CERTIFICADOS / CERTIFIED,GF Social Internacional,GF Social Internacional
Domino's Pizza - Inverurie,57.28655959999999,-2.3767735,,Fast Food,CERTIFICADOS / CERTIFIED,GF Social Internacional,GF Social Internacional
Domino's Pizza - IOM - Onchan,54.1499128,-4.517205199999998,,Fast Food,CERTIFICADOS / CERTIFIED,GF Social Internacional,GF Social Internacional
Domino's Pizza - Ipswich - Bramford Road,52.06286040000001,1.1389053,,Fast Food,CERTIFICADOS / CERTIFIED,GF Social Internacional,GF Social Internacional
Domino's Pizza - Ipswich - Felixstowe Road,52.04870349999999,1.1782941,,Fast Food,CERTIFICADOS / CERTIFIED,GF Social Internacional,GF Social Internacional
Domino's Pizza - Ipswich - Kesgrave,52.0676869,1.2590079,,Fast Food,CERTIFICADOS / CERTIFIED,GF Social Internacional,GF Social Internacional
Domino's Pizza - Irvine,55.61711279999999,-4.666625099999999,,Fast Food,CERTIFICADOS / CERTIFIED,GF Social Internacional,GF Social Internacional
Domino's Pizza - Jarrow,54.980815,-1.48771,,Fast Food,CERTIFICADOS / CERTIFIED,GF Social Internacional,GF Social Internacional
Domino's Pizza - Johnstone,55.836660200000004,-4.5072016,,Fast Food,CERTIFICADOS / CERTIFIED,GF Social Internacional,GF Social Internacional
Domino's Pizza - Keighley,53.8745167,-1.8928998,,Fast Food,CERTIFICADOS / CERTIFIED,GF Social Internacional,GF Social Internacional
Domino's Pizza - Kendal - New Road,54.3283563,-2.7426039,,Fast Food,CERTIFICADOS / CERTIFIED,GF Social Internacional,GF Social Internacional
Domino's Pizza - Kenilworth,52.3471948,-1.5587336,,Fast Food,CERTIFICADOS / CERTIFIED,GF Social Internacional,GF Social Internacional
Domino's Pizza - Kettering,52.40427530000001,-0.7265824000000001,,Fast Food,CERTIFICADOS / CERTIFIED,GF Social Internacional,GF Social Internacional
Domino's Pizza - Kidderminster,52.3895892,-2.2471581,,Fast Food,CERTIFICADOS / CERTIFIED,GF Social Internacional,GF Social Internacional
Domino's Pizza - Kilmarnock - Glasgow Road,55.6307302,-4.483049199999999,,Fast Food,CERTIFICADOS / CERTIFIED,GF Social Internacional,GF Social Internacional
Domino's Pizza - Kilmarnock - Titchfield Street,55.6046443,-4.496851700000001,,Fast Food,CERTIFICADOS / CERTIFIED,GF Social Internacional,GF Social Internacional
Domino's Pizza - Kings Hill,51.2723969,0.4004284999999999,,Fast Food,CERTIFICADOS / CERTIFIED,GF Social Internacional,GF Social Internacional
Domino's Pizza - King's Lynn,52.7621398,0.3995788,,Fast Food,CERTIFICADOS / CERTIFIED,GF Social Internacional,GF Social Internacional
Domino's Pizza - Kingswinford,52.5080798,-2.1550485,,Fast Food,CERTIFICADOS / CERTIFIED,GF Social Internacional,GF Social Internacional
Domino's Pizza - Kirkcaldy,56.11269699999999,-3.164688,,Fast Food,CERTIFICADOS / CERTIFIED,GF Social Internacional,GF Social Internacional
Domino's Pizza - Kirkintilloch,55.940911,-4.1586124,,Fast Food,CERTIFICADOS / CERTIFIED,GF Social Internacional,GF Social Internacional
Domino's Pizza - Knaphill,51.31748899999999,-0.617877,,Fast Food,CERTIFICADOS / CERTIFIED,GF Social Internacional,GF Social Internacional
Domino's Pizza - Knutsford,53.3022931,-2.3732625,,Fast Food,CERTIFICADOS / CERTIFIED,GF Social Internacional,GF Social Internacional
Domino's Pizza - Lancaster,54.0495597,-2.7994502,,Fast Food,CERTIFICADOS / CERTIFIED,GF Social Internacional,GF Social Internacional
Domino's Pizza - Langley,51.5043481,-0.5429455000000001,,Fast Food,CERTIFICADOS / CERTIFIED,GF Social Internacional,GF Social Internacional
Domino's Pizza - Larne,54.84667610000001,-5.8107148,,Fast Food,CERTIFICADOS / CERTIFIED,GF Social Internacional,GF Social Internacional
Domino's Pizza - Leamington Spa,52.29046250000001,-1.5328971,,Fast Food,CERTIFICADOS / CERTIFIED,GF Social Internacional,GF Social Internacional
Domino's Pizza - Leatherhead,51.2920874,-0.3371658,,Fast Food,CERTIFICADOS / CERTIFIED,GF Social Internacional,GF Social Internacional
Domino's Pizza - Leeds - Burley Road,53.8023129,-1.5649223,,Fast Food,CERTIFICADOS / CERTIFIED,GF Social Internacional,GF Social Internacional
Domino's Pizza - Leeds - Central,53.8015335,-1.5432534,,Fast Food,CERTIFICADOS / CERTIFIED,GF Social Internacional,GF Social Internacional
Domino's Pizza - Leeds - Crossgates,53.80802389999999,-1.4547079,,Fast Food,CERTIFICADOS / CERTIFIED,GF Social Internacional,GF Social Internacional
Domino's Pizza - Leeds - Guiseley,53.8741184,-1.7141866,,Fast Food,CERTIFICADOS / CERTIFIED,GF Social Internacional,GF Social Internacional
Domino's Pizza - Leeds - Headingley,53.8234341,-1.5808379,,Fast Food,CERTIFICADOS / CERTIFIED,GF Social Internacional,GF Social Internacional
Domino's Pizza - Leeds - Horsforth,53.83335229999999,-1.6481465,,Fast Food,CERTIFICADOS / CERTIFIED,GF Social Internacional,GF Social Internacional
Domino's Pizza - Leeds - Morley,53.7444691,-1.5996585,,Fast Food,CERTIFICADOS / CERTIFIED,GF Social Internacional,GF Social Internacional
Domino's Pizza - Leeds - Oulton,53.7515766,-1.4479562,,Fast Food,CERTIFICADOS / CERTIFIED,GF Social Internacional,GF Social Internacional
Domino's Pizza - Leeds - Pudsey,53.7926641,-1.6689362,,Fast Food,CERTIFICADOS / CERTIFIED,GF Social Internacional,GF Social Internacional
Domino's Pizza - Leeds - Roundhay,53.8450074,-1.5108873,,Fast Food,CERTIFICADOS / CERTIFIED,GF Social Internacional,GF Social Internacional
Domino's Pizza - Leicester - Belgrave Boulevard,52.6660011,-1.1378288,,Fast Food,CERTIFICADOS / CERTIFIED,GF Social Internacional,GF Social Internacional
Domino's Pizza - Leicester - London Road,52.6269375,-1.11876,,Fast Food,CERTIFICADOS / CERTIFIED,GF Social Internacional,GF Social Internacional
Domino's Pizza - Leicester - Narborough Road,52.6225408,-1.1546791,,Fast Food,CERTIFICADOS / CERTIFIED,GF Social Internacional,GF Social Internacional
Domino's Pizza - Leicester - Uppingham Road,52.6420487,-1.0905374000000003,,Fast Food,CERTIFICADOS / CERTIFIED,GF Social Internacional,GF Social Internacional
Domino's Pizza - Leicester - Wigston,52.58807880000001,-1.1050839,,Fast Food,CERTIFICADOS / CERTIFIED,GF Social Internacional,GF Social Internacional
Domino's Pizza - Leigh,53.4998032,-2.518844000000001,,Fast Food,CERTIFICADOS / CERTIFIED,GF Social Internacional,GF Social Internacional
Domino's Pizza - Leighton Buzzard,51.91712010000001,-0.6631453,,Fast Food,CERTIFICADOS / CERTIFIED,GF Social Internacional,GF Social Internacional
Domino's Pizza - Letchworth,51.9788466,-0.2255556,,Fast Food,CERTIFICADOS / CERTIFIED,GF Social Internacional,GF Social Internacional
Domino's Pizza - Lewes,50.8729987,0.0104636,,Fast Food,CERTIFICADOS / CERTIFIED,GF Social Internacional,GF Social Internacional
Domino's Pizza - Leyland,53.6975626,-2.690624,,Fast Food,CERTIFICADOS / CERTIFIED,GF Social Internacional,GF Social Internacional
Domino's Pizza - Lichfield,52.6818239,-1.8285472,,Fast Food,CERTIFICADOS / CERTIFIED,GF Social Internacional,GF Social Internacional
Domino's Pizza - Lincoln - Central,53.219878200000004,-0.5446567000000002,,Fast Food,CERTIFICADOS / CERTIFIED,GF Social Internacional,GF Social Internacional
Domino's Pizza - Lincoln - North,53.2419686,-0.5107811,,Fast Food,CERTIFICADOS / CERTIFIED,GF Social Internacional,GF Social Internacional
Domino's Pizza - Lincoln - South,53.203819,-0.5801288,,Fast Food,CERTIFICADOS / CERTIFIED,GF Social Internacional,GF Social Internacional
Domino's Pizza - Linlithgow,55.97492530000001,-3.6201406999999994,,Fast Food,CERTIFICADOS / CERTIFIED,GF Social Internacional,GF Social Internacional
Domino's Pizza - Lisburn,54.50993940000001,-6.0544547,,Fast Food,CERTIFICADOS / CERTIFIED,GF Social Internacional,GF Social Internacional
Domino's Pizza - Littlehampton,50.8195128,-0.5445605000000001,,Fast Food,CERTIFICADOS / CERTIFIED,GF Social Internacional,GF Social Internacional
Domino's Pizza - Liverpool - Aintree,53.48579849999999,-2.9486588999999994,,Fast Food,CERTIFICADOS / CERTIFIED,GF Social Internacional,GF Social Internacional
Domino's Pizza - Liverpool - Allerton Road,53.38695920000001,-2.9089986,,Fast Food,CERTIFICADOS / CERTIFIED,GF Social Internacional,GF Social Internacional
Domino's Pizza - Liverpool - Hunts Cross,53.3579422,-2.8663545,,Fast Food,CERTIFICADOS / CERTIFIED,GF Social Internacional,GF Social Internacional
Domino's Pizza - Liverpool - Huyton,53.4130484,-2.8394137,,Fast Food,CERTIFICADOS / CERTIFIED,GF Social Internacional,GF Social Internacional
Domino's Pizza - Liverpool - London Road,53.410004900000004,-2.9688903,,Fast Food,CERTIFICADOS / CERTIFIED,GF Social Internacional,GF Social Internacional
Domino's Pizza - Liverpool - Rice Lane,53.45729260000001,-2.963123,,Fast Food,CERTIFICADOS / CERTIFIED,GF Social Internacional,GF Social Internacional
Domino's Pizza - Liverpool - West Derby,53.4245495,-2.8907505,,Fast Food,CERTIFICADOS / CERTIFIED,GF Social Internacional,GF Social Internacional
Domino's Pizza - Livingston,55.886758100000016,-3.511067300000001,,Fast Food,CERTIFICADOS / CERTIFIED,GF Social Internacional,GF Social Internacional
Domino's Pizza - Llanelli,51.6839209,-4.159169700000001,,Fast Food,CERTIFICADOS / CERTIFIED,GF Social Internacional,GF Social Internacional
Domino's Pizza - London - Balham,51.4467966,-0.1491077,,Fast Food,CERTIFICADOS / CERTIFIED,GF Social Internacional,GF Social Internacional
Domino's Pizza - London - Ballards Lane,51.60200400000003,-0.19308570000000014,,Fast Food,CERTIFICADOS / CERTIFIED,GF Social Internacional,GF Social Internacional
Domino's Pizza - London - Barking,51.53973629999999,0.0825596,,Fast Food,CERTIFICADOS / CERTIFIED,GF Social Internacional,GF Social Internacional
Domino's Pizza - London - Barkingside,51.5896743,0.08199479999999999,,Fast Food,CERTIFICADOS / CERTIFIED,GF Social Internacional,GF Social Internacional
Domino's Pizza - London - Barnet,51.652675,-0.1988371,,Fast Food,CERTIFICADOS / CERTIFIED,GF Social Internacional,GF Social Internacional
Domino's Pizza - London - Battersea Bridge,51.4784277,-0.1697483,,Fast Food,CERTIFICADOS / CERTIFIED,GF Social Internacional,GF Social Internacional
Domino's Pizza - London - Battersea,51.4609834,-0.1652204,,Fast Food,CERTIFICADOS / CERTIFIED,GF Social Internacional,GF Social Internacional
Domino's Pizza - London - Bayswater,51.5187897,-0.1972006,,Fast Food,CERTIFICADOS / CERTIFIED,GF Social Internacional,GF Social Internacional
Domino's Pizza - London - Belmont,51.6007295,-0.3173777,,Fast Food,CERTIFICADOS / CERTIFIED,GF Social Internacional,GF Social Internacional
Domino's Pizza - London - Bermondsey,51.4920897,-0.0824066,,Fast Food,CERTIFICADOS / CERTIFIED,GF Social Internacional,GF Social Internacional
Domino's Pizza - London - Bow,51.5321908,-0.0340758,,Fast Food,CERTIFICADOS / CERTIFIED,GF Social Internacional,GF Social Internacional
Domino's Pizza - London - Bromley,51.4063382,0.0128609,,Fast Food,CERTIFICADOS / CERTIFIED,GF Social Internacional,GF Social Internacional
Domino's Pizza - London - Catford,51.4458402,-0.01805729999999999,,Fast Food,CERTIFICADOS / CERTIFIED,GF Social Internacional,GF Social Internacional
Domino's Pizza - London - Chadwell Heath,51.5721548,0.1379507,,Fast Food,CERTIFICADOS / CERTIFIED,GF Social Internacional,GF Social Internacional
Domino's Pizza - London - Chingford,51.6195596,-0.0169819,,Fast Food,CERTIFICADOS / CERTIFIED,GF Social Internacional,GF Social Internacional
Domino's Pizza - London - Chiswick,51.4927198,-0.2524772,,Fast Food,CERTIFICADOS / CERTIFIED,GF Social Internacional,GF Social Internacional
Domino's Pizza - London - Collier Row,51.5989044,0.1608262,,Fast Food,CERTIFICADOS / CERTIFIED,GF Social Internacional,GF Social Internacional
Domino's Pizza - London - Cranford,51.47973099999999,-0.41201,,Fast Food,CERTIFICADOS / CERTIFIED,GF Social Internacional,GF Social Internacional
Domino's Pizza - London - Crayford,51.4496073,0.1867905,,Fast Food,CERTIFICADOS / CERTIFIED,GF Social Internacional,GF Social Internacional
Domino's Pizza - London - Crouch End,51.58213389999999,-0.11939570000000001,,Fast Food,CERTIFICADOS / CERTIFIED,GF Social Internacional,GF Social Internacional
Domino's Pizza - London - Croydon Central,51.3709198,-0.1000507,,Fast Food,CERTIFICADOS / CERTIFIED,GF Social Internacional,GF Social Internacional
Domino's Pizza - London - Croydon - West,51.3841376,-0.1085174,,Fast Food,CERTIFICADOS / CERTIFIED,GF Social Internacional,GF Social Internacional
Domino's Pizza - London - Crystal Palace,51.4196293,-0.08156880000000001,,Fast Food,CERTIFICADOS / CERTIFIED,GF Social Internacional,GF Social Internacional
Domino's Pizza - London - Dartford,51.4427923,0.2420364,,Fast Food,CERTIFICADOS / CERTIFIED,GF Social Internacional,GF Social Internacional
Domino's Pizza - London - Docklands,51.51147460000001,-0.0283412,,Fast Food,CERTIFICADOS / CERTIFIED,GF Social Internacional,GF Social Internacional
Domino's Pizza - London - Ealing Common,51.5084345,-0.281755,,Fast Food,CERTIFICADOS / CERTIFIED,GF Social Internacional,GF Social Internacional
Domino's Pizza - London - Earlsfield,51.4385681,-0.186609,,Fast Food,CERTIFICADOS / CERTIFIED,GF Social Internacional,GF Social Internacional
Domino's Pizza - London - East Dulwich,51.46178809999999,-0.0805719,,Fast Food,CERTIFICADOS / CERTIFIED,GF Social Internacional,GF Social Internacional
Domino's Pizza - London - East Finchley,51.5896449,-0.163676,,Fast Food,CERTIFICADOS / CERTIFIED,GF Social Internacional,GF Social Internacional
Domino's Pizza - London - East Ham,51.5312405,0.0445682,,Fast Food,CERTIFICADOS / CERTIFIED,GF Social Internacional,GF Social Internacional
Domino's Pizza - London - East Sheen,51.4651616,-0.2633365,,Fast Food,CERTIFICADOS / CERTIFIED,GF Social Internacional,GF Social Internacional
Domino's Pizza - London - Edgware,51.6110304,-0.2793044,,Fast Food,CERTIFICADOS / CERTIFIED,GF Social Internacional,GF Social Internacional
Domino's Pizza - London - Edmonton,51.6249297,-0.0591313,,Fast Food,CERTIFICADOS / CERTIFIED,GF Social Internacional,GF Social Internacional
Domino's Pizza - London - Elephant and Castle,51.49094489999999,-0.1035176,,Fast Food,CERTIFICADOS / CERTIFIED,GF Social Internacional,GF Social Internacional
Domino's Pizza - London - Elm Park,51.549522399999994,0.1998542,,Fast Food,CERTIFICADOS / CERTIFIED,GF Social Internacional,GF Social Internacional
Domino's Pizza - London - Eltham,51.4586255,0.04962950000000001,,Fast Food,CERTIFICADOS / CERTIFIED,GF Social Internacional,GF Social Internacional
Domino's Pizza - London - Enfield,51.66411229999999,-0.08233359999999998,,Fast Food,CERTIFICADOS / CERTIFIED,GF Social Internacional,GF Social Internacional
Domino's Pizza - London - Enfield Wash,51.67051550000001,-0.04105420000000001,,Fast Food,CERTIFICADOS / CERTIFIED,GF Social Internacional,GF Social Internacional
Domino's Pizza - London - Epsom,51.3342363,-0.2633805,,Fast Food,CERTIFICADOS / CERTIFIED,GF Social Internacional,GF Social Internacional
Domino's Pizza - London - Erith,51.4806499,0.1805823,,Fast Food,CERTIFICADOS / CERTIFIED,GF Social Internacional,GF Social Internacional
Domino's Pizza - London - Feltham,51.4424189,-0.4125193999999999,,Fast Food,CERTIFICADOS / CERTIFIED,GF Social Internacional,GF Social Internacional
Domino's Pizza - London - Finchley Road,51.5496855,-0.1814716,,Fast Food,CERTIFICADOS / CERTIFIED,GF Social Internacional,GF Social Internacional
Domino's Pizza - London - Foley Street,51.51927360000001,-0.1399655,,Fast Food,CERTIFICADOS / CERTIFIED,GF Social Internacional,GF Social Internacional
Domino's Pizza - London - Fulham,51.4800601,-0.198277,,Fast Food,CERTIFICADOS / CERTIFIED,GF Social Internacional,GF Social Internacional
Domino's Pizza - London - Gants Hill,51.57810869999999,0.0650196,,Fast Food,CERTIFICADOS / CERTIFIED,GF Social Internacional,GF Social Internacional
Domino's Pizza - London - Gidea Park,51.5747936,0.2049528,,Fast Food,CERTIFICADOS / CERTIFIED,GF Social Internacional,GF Social Internacional
Domino's Pizza - London - Golders Green,51.5782624,-0.2079322,,Fast Food,CERTIFICADOS / CERTIFIED,GF Social Internacional,GF Social Internacional
Domino's Pizza - London - Greenford Road,51.55102580000001,-0.33910320000000005,,Fast Food,CERTIFICADOS / CERTIFIED,GF Social Internacional,GF Social Internacional
Domino's Pizza - London - Greenwich,51.4857009,0.0063635,,Fast Food,CERTIFICADOS / CERTIFIED,GF Social Internacional,GF Social Internacional
Domino's Pizza - London - Hackney,51.5437786,-0.0551698,,Fast Food,CERTIFICADOS / CERTIFIED,GF Social Internacional,GF Social Internacional
Domino's Pizza - London - Harold Park,51.6031875,0.2479873,,Fast Food,CERTIFICADOS / CERTIFIED,GF Social Internacional,GF Social Internacional
Domino's Pizza - London - Hendon,51.58292729999999,-0.22765020000000002,,Fast Food,CERTIFICADOS / CERTIFIED,GF Social Internacional,GF Social Internacional
Domino's Pizza - London - Highbury,51.556213099999994,-0.1108679,,Fast Food,CERTIFICADOS / CERTIFIED,GF Social Internacional,GF Social Internacional
Domino's Pizza - London - High Holborn,51.5162783,-0.1252147,,Fast Food,CERTIFICADOS / CERTIFIED,GF Social Internacional,GF Social Internacional
Domino's Pizza - London - Hillingdon,51.53008030000001,-0.4479884,,Fast Food,CERTIFICADOS / CERTIFIED,GF Social Internacional,GF Social Internacional
Domino's Pizza - London - Holloway Road,51.5612453,-0.12387640000000001,,Fast Food,CERTIFICADOS / CERTIFIED,GF Social Internacional,GF Social Internacional
Domino's Pizza - London - Ickenham,51.5688594,-0.4398368,,Fast Food,CERTIFICADOS / CERTIFIED,GF Social Internacional,GF Social Internacional
Domino's Pizza - London - Isleworth,51.4742693,-0.3444284,,Fast Food,CERTIFICADOS / CERTIFIED,GF Social Internacional,GF Social Internacional
Domino's Pizza - London - Islington Green,51.5395157,-0.09742480000000002,,Fast Food,CERTIFICADOS / CERTIFIED,GF Social Internacional,GF Social Internacional
Domino's Pizza - Islington,51.5329048,-0.10937320000000002,,Fast Food,CERTIFICADOS / CERTIFIED,GF Social Internacional,GF Social Internacional
Domino's Pizza - London - Kingston-Upon-Thames,51.4141,-0.2868292,,Fast Food,CERTIFICADOS / CERTIFIED,GF Social Internacional,GF Social Internacional
