nombre,lat,lng,direccion,categoria,capa,mapa,lista,gf_nivel,certificado,web,telefono,gmaps_url
McDonald's,52.630181,4.747514,"Ridderstraat 2, 1811 EX Alkmaar, Nederland",Fast Food,CERTIFICADOS / CERTIFIED,GF Social Internacional,GF Social Internacional,,,,,"https://www.google.com/maps/search/McDonald%27s/@52.630181,4.747514,17z"
McDonald's,52.615921,4.759056000000001,"Robijnstraat, 1812 RB Alkmaar, Nederland",Fast Food,CERTIFICADOS / CERTIFIED,GF Social Internacional,GF Social Internacional,,,,,"https://www.google.com/maps/search/McDonald%27s/@52.615921,4.759056000000001,17z"
McDonald's Alkmaar West,52.63448200000001,4.715538,"Terborchlaan 202, 1816 LE Alkmaar, Nederland",Fast Food,CERTIFICADOS / CERTIFIED,GF Social Internacional,GF Social Internacional,,,,,"https://www.google.com/maps/search/McDonald%27s+Alkmaar+West/@52.63448200000001,4.715538,17z"
McDonald's Almelo Oost,52.3507551,6.676875099999998,"Laan van Iserlohn 2, 7607 PR Almelo, Nederland",Fast Food,CERTIFICADOS / CERTIFIED,GF Social Internacional,GF Social Internacional,,,,,"https://www.google.com/maps/search/McDonald%27s+Almelo+Oost/@52.3507551,6.676875099999998,17z"
McDonald's Almelo Woonboulevard,52.340008000000005,6.642351000000001,"Woonboulevard 2, 7606 JA Almelo, Nederland",Fast Food,CERTIFICADOS / CERTIFIED,GF Social Internacional,GF Social Internacional,,,,,"https://www.google.com/maps/search/McDonald%27s+Almelo+Woonboulevard/@52.340008000000005,6.642351000000001,17z"
McDonald's,52.371984,5.220761,"Stationsstraat 55, 1315 KG Almere, Nederland",Fast Food,CERTIFICADOS / CERTIFIED,GF Social Internacional,GF Social Internacional,,,,,"https://www.google.com/maps/search/McDonald%27s/@52.371984,5.220761,17z"
McDonald's,52.1291097,4.6613204,"Castellumstraat 14, 2405 CB Alphen aan den Rijn, Nederland",Fast Food,CERTIFICADOS / CERTIFIED,GF Social Internacional,GF Social Internacional,,,,,"https://www.google.com/maps/search/McDonald%27s/@52.1291097,4.6613204,17z"
McDonald's,52.15387639999999,5.3852514000000005,"Achter de Arnhemse Poortwal 117, 3811 LZ Amersfoort, Nederland",Fast Food,CERTIFICADOS / CERTIFIED,GF Social Internacional,GF Social Internacional,,,,,"https://www.google.com/maps/search/McDonald%27s/@52.15387639999999,5.3852514000000005,17z"
McDonald's Amersfoort De Wieken,52.1628228,5.4238841,"Wiekenweg, 3815 KP Amersfoort, Nederland",Fast Food,CERTIFICADOS / CERTIFIED,GF Social Internacional,GF Social Internacional,,,,,"https://www.google.com/maps/search/McDonald%27s+Amersfoort+De+Wieken/@52.1628228,5.4238841,17z"
McDonald's,52.3557542,4.7728324,"Fogostraat 8, 1060 LJ Amsterdam, Nederland",Fast Food,CERTIFICADOS / CERTIFIED,GF Social Internacional,GF Social Internacional,,,,,"https://www.google.com/maps/search/McDonald%27s/@52.3557542,4.7728324,17z"
McDonald's,52.31499179999999,4.953526099999999,"Bijlmerplein 368, 1102 DK Amsterdam, Nederland",Fast Food,CERTIFICADOS / CERTIFIED,GF Social Internacional,GF Social Internacional,,,,,"https://www.google.com/maps/search/McDonald%27s/@52.31499179999999,4.953526099999999,17z"
McDonald's,52.2123603,5.964726100000001,"Hofstraat 1A, 7311 KN Apeldoorn, Nederland",Fast Food,CERTIFICADOS / CERTIFIED,GF Social Internacional,GF Social Internacional,,,,,"https://www.google.com/maps/search/McDonald%27s/@52.2123603,5.964726100000001,17z"
McDonald's Apeldoorn Noord,52.23544030000001,5.975198300000001,"Anklaarseweg 125, 7317 AS Apeldoorn, Nederland",Fast Food,CERTIFICADOS / CERTIFIED,GF Social Internacional,GF Social Internacional,,,,,"https://www.google.com/maps/search/McDonald%27s+Apeldoorn+Noord/@52.23544030000001,5.975198300000001,17z"
McDonald's,51.9645555,5.8911446,"Batavierenweg 29, 6841 HN Arnhem, Nederland",Fast Food,CERTIFICADOS / CERTIFIED,GF Social Internacional,GF Social Internacional,,,,,"https://www.google.com/maps/search/McDonald%27s/@51.9645555,5.8911446,17z"
McDonald's,51.9593115,5.895201999999999,"Kronenburgpassage 104, 6831 ES Arnhem, Nederland",Fast Food,CERTIFICADOS / CERTIFIED,GF Social Internacional,GF Social Internacional,,,,,"https://www.google.com/maps/search/McDonald%27s/@51.9593115,5.895201999999999,17z"
McDonald's,51.9756449,5.960051,"Ringoven 13, 6826 TP Arnhem, Nederland",Fast Food,CERTIFICADOS / CERTIFIED,GF Social Internacional,GF Social Internacional,,,,,"https://www.google.com/maps/search/McDonald%27s/@51.9756449,5.960051,17z"
McDonald's Arnhem Rijnstraat,51.98160499999999,5.906274999999999,"Rijnstraat, 6811 GN Arnhem, Nederland",Fast Food,CERTIFICADOS / CERTIFIED,GF Social Internacional,GF Social Internacional,,,,,"https://www.google.com/maps/search/McDonald%27s+Arnhem+Rijnstraat/@51.98160499999999,5.906274999999999,17z"
McDonald's,53.02635839999999,6.5721476,"Peelo, 9403 TZ Assen, Nederland",Fast Food,CERTIFICADOS / CERTIFIED,GF Social Internacional,GF Social Internacional,,,,,"https://www.google.com/maps/search/McDonald%27s/@53.02635839999999,6.5721476,17z"
McDonald's,51.87017400000001,4.548227,"Van der Waalsweg, 2991 XN Barendrecht, Nederland",Fast Food,CERTIFICADOS / CERTIFIED,GF Social Internacional,GF Social Internacional,,,,,"https://www.google.com/maps/search/McDonald%27s/@51.87017400000001,4.548227,17z"
McDonald's,52.16913100000001,5.564831,"Zelderseweg 67, 3784 LN Terschuur, Nederland",Fast Food,CERTIFICADOS / CERTIFIED,GF Social Internacional,GF Social Internacional,,,,,"https://www.google.com/maps/search/McDonald%27s/@52.16913100000001,5.564831,17z"
McDonald's,51.4865813,4.278801,"De Boulevard Noord 10-TRAF, 4617 HD Bergen op Zoom, Nederland",Fast Food,CERTIFICADOS / CERTIFIED,GF Social Internacional,GF Social Internacional,,,,,"https://www.google.com/maps/search/McDonald%27s/@51.4865813,4.278801,17z"
McDonald's,51.9817499,4.451010399999999,"Celsiusstraat 20, 2652 XT Berkel en Rodenrijs, Nederland",Fast Food,CERTIFICADOS / CERTIFIED,GF Social Internacional,GF Social Internacional,,,,,"https://www.google.com/maps/search/McDonald%27s/@51.9817499,4.451010399999999,17z"
McDonald's,51.50389300000001,5.413213,"Eindhovenseweg-Zuid 59, 5683 PW Best, Nederland",Fast Food,CERTIFICADOS / CERTIFIED,GF Social Internacional,GF Social Internacional,,,,,"https://www.google.com/maps/search/McDonald%27s/@51.50389300000001,5.413213,17z"
McDonald's Bodegraven,52.068023999999994,4.740095,"Goudseweg 30, 2411 HL Bodegraven, Nederland",Fast Food,CERTIFICADOS / CERTIFIED,GF Social Internacional,GF Social Internacional,,,,,"https://www.google.com/maps/search/McDonald%27s+Bodegraven/@52.068023999999994,4.740095,17z"
McDonald's Boxmeer,51.6663881,5.9447515,"Provincialeweg 9, 5835 CZ Beugen, Nederland",Fast Food,CERTIFICADOS / CERTIFIED,GF Social Internacional,GF Social Internacional,,,,,"https://www.google.com/maps/search/McDonald%27s+Boxmeer/@51.6663881,5.9447515,17z"
McDonald's,51.585905000000004,4.775850699999999,"Karnemelkstraat 5, 4811 KJ Breda, Nederland",Fast Food,CERTIFICADOS / CERTIFIED,GF Social Internacional,GF Social Internacional,,,,,"https://www.google.com/maps/search/McDonald%27s/@51.585905000000004,4.775850699999999,17z"
McDonald's,51.5797951,4.836778699999999,"Bavelseparklaan, 4817 ZX Breda, Nederland",Fast Food,CERTIFICADOS / CERTIFIED,GF Social Internacional,GF Social Internacional,,,,,"https://www.google.com/maps/search/McDonald%27s/@51.5797951,4.836778699999999,17z"
McDonald's,51.60025330000001,4.7385251,"Veldsteen 4, 4815 PK Breda, Nederland",Fast Food,CERTIFICADOS / CERTIFIED,GF Social Internacional,GF Social Internacional,,,,,"https://www.google.com/maps/search/McDonald%27s/@51.60025330000001,4.7385251,17z"
McDonald's,51.5821867,4.7297582,"Kruisvoort 95, 4814 RX Breda, Nederland",Fast Food,CERTIFICADOS / CERTIFIED,GF Social Internacional,GF Social Internacional,,,,,"https://www.google.com/maps/search/McDonald%27s/@51.5821867,4.7297582,17z"
McDonald's,52.17174,4.9897571,"De Corridor 1, 3621 ZA Breukelen, Nederland",Fast Food,CERTIFICADOS / CERTIFIED,GF Social Internacional,GF Social Internacional,,,,,"https://www.google.com/maps/search/McDonald%27s/@52.17174,4.9897571,17z"
McDonald's Buikslotermeerplein,52.399046,4.936199999999999,"Buikslotermeerplein 60, 1025 EW Amsterdam, Nederland",Fast Food,CERTIFICADOS / CERTIFIED,GF Social Internacional,GF Social Internacional,,,,,"https://www.google.com/maps/search/McDonald%27s+Buikslotermeerplein/@52.399046,4.936199999999999,17z"
McDonald's,52.275674,5.162366,"Veerplein 5, 1404 DA Bussum, Nederland",Fast Food,CERTIFICADOS / CERTIFIED,GF Social Internacional,GF Social Internacional,,,,,"https://www.google.com/maps/search/McDonald%27s/@52.275674,5.162366,17z"
McDonald's,51.95223010000001,4.5654534,"Hoofdweg 1, 2908 LB Capelle aan den IJssel, Nederland",Fast Food,CERTIFICADOS / CERTIFIED,GF Social Internacional,GF Social Internacional,,,,,"https://www.google.com/maps/search/McDonald%27s/@51.95223010000001,4.5654534,17z"
McDonald's,51.9255503,4.566316100000001,"McDrive, 2901 LA Capelle aan den IJssel, Nederland",Fast Food,CERTIFICADOS / CERTIFIED,GF Social Internacional,GF Social Internacional,,,,,"https://www.google.com/maps/search/McDonald%27s/@51.9255503,4.566316100000001,17z"
McDonald's,52.32325050000001,4.956346400000001,"1102 AK Amsterdam, Nederland",Fast Food,CERTIFICADOS / CERTIFIED,GF Social Internacional,GF Social Internacional,,,,,"https://www.google.com/maps/search/McDonald%27s/@52.32325050000001,4.956346400000001,17z"
McDonald's,52.0104467,4.3607736,"Brabantse Turfmarkt 76-78, 2611 CP Delft, Nederland",Fast Food,CERTIFICADOS / CERTIFIED,GF Social Internacional,GF Social Internacional,,,,,"https://www.google.com/maps/search/McDonald%27s/@52.0104467,4.3607736,17z"
McDonald's,52.0429847,4.2421052,"Escamplaan, 2553 NK Den Haag, Nederland",Fast Food,CERTIFICADOS / CERTIFIED,GF Social Internacional,GF Social Internacional,,,,,"https://www.google.com/maps/search/McDonald%27s/@52.0429847,4.2421052,17z"
McDonald's,52.06668409999999,4.3194965,"Van der Kunstraat 123, 2521 BR Den Haag, Nederland",Fast Food,CERTIFICADOS / CERTIFIED,GF Social Internacional,GF Social Internacional,,,,,"https://www.google.com/maps/search/McDonald%27s/@52.06668409999999,4.3194965,17z"
McDonald's,52.9586248,4.760612699999999,"Bernhardplein 16, 1781 HH Den Helder, Nederland",Fast Food,CERTIFICADOS / CERTIFIED,GF Social Internacional,GF Social Internacional,,,,,"https://www.google.com/maps/search/McDonald%27s/@52.9586248,4.760612699999999,17z"
McDonald's McDrive,52.91621929999999,4.793301500000001,"Verkeerstorenweg 2, 1786 PN Den Helder, Nederland",Fast Food,CERTIFICADOS / CERTIFIED,GF Social Internacional,GF Social Internacional,,,,,"https://www.google.com/maps/search/McDonald%27s+McDrive/@52.91621929999999,4.793301500000001,17z"
McDonald's McDrive,52.2362076,6.178147600000001,"Deventerweg 121A, 7418 DA Deventer, Nederland",Fast Food,CERTIFICADOS / CERTIFIED,GF Social Internacional,GF Social Internacional,,,,,"https://www.google.com/maps/search/McDonald%27s+McDrive/@52.2362076,6.178147600000001,17z"
McDonald's Deventer de Scheg,52.2496739,6.204311800000001,"Piet van Donkplein 12, 7422 LX Deventer, Nederland",Fast Food,CERTIFICADOS / CERTIFIED,GF Social Internacional,GF Social Internacional,,,,,"https://www.google.com/maps/search/McDonald%27s+Deventer+de+Scheg/@52.2496739,6.204311800000001,17z"
McDonald's,52.3326214,4.9789387,"Sniep 22, 1112 AH Diemen, Nederland",Fast Food,CERTIFICADOS / CERTIFIED,GF Social Internacional,GF Social Internacional,,,,,"https://www.google.com/maps/search/McDonald%27s/@52.3326214,4.9789387,17z"
McDonald's,51.945114999999994,6.310658999999999,"Ettenseweg 1, 7004 GX Doetinchem, Nederland",Fast Food,CERTIFICADOS / CERTIFIED,GF Social Internacional,GF Social Internacional,,,,,"https://www.google.com/maps/search/McDonald%27s/@51.945114999999994,6.310658999999999,17z"
McDonald's,51.81325509999999,4.666971599999999,"Bagijnhof 10, 3311 KE Dordrecht, Nederland",Fast Food,CERTIFICADOS / CERTIFIED,GF Social Internacional,GF Social Internacional,,,,,"https://www.google.com/maps/search/McDonald%27s/@51.81325509999999,4.666971599999999,17z"
McDonald's,51.81811039999999,4.7093471,"Kerkeplaat 2, 3313 LC Dordrecht, Nederland",Fast Food,CERTIFICADOS / CERTIFIED,GF Social Internacional,GF Social Internacional,,,,,"https://www.google.com/maps/search/McDonald%27s/@51.81811039999999,4.7093471,17z"
McDonald's,53.1087222,6.0814083,"Omloop 54, 9201 CC Drachten, Nederland",Fast Food,CERTIFICADOS / CERTIFIED,GF Social Internacional,GF Social Internacional,,,,,"https://www.google.com/maps/search/McDonald%27s/@53.1087222,6.0814083,17z"
McDonald's,53.09588609999999,6.1357078,"Bohrlaan, 9207 HA Opsterland, Nederland",Fast Food,CERTIFICADOS / CERTIFIED,GF Social Internacional,GF Social Internacional,,,,,"https://www.google.com/maps/search/McDonald%27s/@53.09588609999999,6.1357078,17z"
McDonald's Duiven,51.967345,5.989125,"Nieuwgraaf 2, 6921 RJ Duiven, Nederland",Fast Food,CERTIFICADOS / CERTIFIED,GF Social Internacional,GF Social Internacional,,,,,"https://www.google.com/maps/search/McDonald%27s+Duiven/@51.967345,5.989125,17z"
McDonald's,51.1039931,5.862720700000001,"McDonald's drive-through, 6101 KB Pey, Nederland",Fast Food,CERTIFICADOS / CERTIFIED,GF Social Internacional,GF Social Internacional,,,,,"https://www.google.com/maps/search/McDonald%27s/@51.1039931,5.862720700000001,17z"
McDonald's Eindhoven Airport,51.4570032,5.392333499999999,"Luchthavenweg, 5657 EB Eindhoven, Nederland",Fast Food,CERTIFICADOS / CERTIFIED,GF Social Internacional,GF Social Internacional,,,,,"https://www.google.com/maps/search/McDonald%27s+Eindhoven+Airport/@51.4570032,5.392333499999999,17z"
McDonald's,51.440986,5.476721,"Demer 2A, 5611 AR Eindhoven, Nederland",Fast Food,CERTIFICADOS / CERTIFIED,GF Social Internacional,GF Social Internacional,,,,,"https://www.google.com/maps/search/McDonald%27s/@51.440986,5.476721,17z"
McDonald's,51.439789,5.4782,"Markt 36, 5611 EC Eindhoven, Nederland",Fast Food,CERTIFICADOS / CERTIFIED,GF Social Internacional,GF Social Internacional,,,,,"https://www.google.com/maps/search/McDonald%27s/@51.439789,5.4782,17z"
McDonald's,51.4696258,5.4768282,"Winkelcentrum Woensel 300, 5625 AG Eindhoven, Nederland",Fast Food,CERTIFICADOS / CERTIFIED,GF Social Internacional,GF Social Internacional,,,,,"https://www.google.com/maps/search/McDonald%27s/@51.4696258,5.4768282,17z"
McDonald's,52.771811,6.896665,"Hoenderkamp 1, 7812 VZ Emmen, Nederland",Fast Food,CERTIFICADOS / CERTIFIED,GF Social Internacional,GF Social Internacional,,,,,"https://www.google.com/maps/search/McDonald%27s/@52.771811,6.896665,17z"
McDonald's,52.697519,5.273133,"De Dolfijn 2a, 1601 MG Enkhuizen, Nederland",Fast Food,CERTIFICADOS / CERTIFIED,GF Social Internacional,GF Social Internacional,,,,,"https://www.google.com/maps/search/McDonald%27s/@52.697519,5.273133,17z"
McDonald's Enschede Woonplein,52.224927,6.8813830000000005,"Schuttersveld 1-7, 7514 AC Enschede, Nederland",Fast Food,CERTIFICADOS / CERTIFIED,GF Social Internacional,GF Social Internacional,,,,,"https://www.google.com/maps/search/McDonald%27s+Enschede+Woonplein/@52.224927,6.8813830000000005,17z"
McDonald's Enschede Centrum,52.218855,6.898792,"Kalanderstraat 15, 7511 HW Enschede, Nederland",Fast Food,CERTIFICADOS / CERTIFIED,GF Social Internacional,GF Social Internacional,,,,,"https://www.google.com/maps/search/McDonald%27s+Enschede+Centrum/@52.218855,6.898792,17z"
McDonald's Enschede Zuiderval,52.2060939,6.890500599999998,"Spaansland 2, 7543 BG Enschede, Nederland",Fast Food,CERTIFICADOS / CERTIFIED,GF Social Internacional,GF Social Internacional,,,,,"https://www.google.com/maps/search/McDonald%27s+Enschede+Zuiderval/@52.2060939,6.890500599999998,17z"
McDonald's,52.31579,5.56463,"Palmbosweg 22, 3853 LB Ermelo, Nederland",Fast Food,CERTIFICADOS / CERTIFIED,GF Social Internacional,GF Social Internacional,,,,,"https://www.google.com/maps/search/McDonald%27s/@52.31579,5.56463,17z"
McDonald's,51.572495,4.6681119,"McDrive, 4873 LP Etten-Leur, Nederland",Fast Food,CERTIFICADOS / CERTIFIED,GF Social Internacional,GF Social Internacional,,,,,"https://www.google.com/maps/search/McDonald%27s/@51.572495,4.6681119,17z"
McDonald's,51.87989999999999,5.214106699999999,"Panweg 5, 4157 PB Enspijk, Nederland",Fast Food,CERTIFICADOS / CERTIFIED,GF Social Internacional,GF Social Internacional,,,,,"https://www.google.com/maps/search/McDonald%27s/@51.87989999999999,5.214106699999999,17z"
McDonald's,51.482842,3.896325,"McDrive, 4462 ML Goes, Nederland",Fast Food,CERTIFICADOS / CERTIFIED,GF Social Internacional,GF Social Internacional,,,,,"https://www.google.com/maps/search/McDonald%27s/@51.482842,3.896325,17z"
McDonald's Gorinchem,51.8413251,5.0052878,"Franklinweg 3, 4207 HX Gorinchem, Nederland",Fast Food,CERTIFICADOS / CERTIFIED,GF Social Internacional,GF Social Internacional,,,,,"https://www.google.com/maps/search/McDonald%27s+Gorinchem/@51.8413251,5.0052878,17z"
McDonald's Groningen Sontplein,53.216292,6.584161000000003,"Sontplein 2, 9723 BZ Groningen, Nederland",Fast Food,CERTIFICADOS / CERTIFIED,GF Social Internacional,GF Social Internacional,,,,,"https://www.google.com/maps/search/McDonald%27s+Groningen+Sontplein/@53.216292,6.584161000000003,17z"
McDonald's,53.215956,6.557270999999999,"Westerkade, 9718 AR Groningen, Nederland",Fast Food,CERTIFICADOS / CERTIFIED,GF Social Internacional,GF Social Internacional,,,,,"https://www.google.com/maps/search/McDonald%27s/@53.215956,6.557270999999999,17z"
McDonald's Haarlem Casablancastraat,52.358473,4.655205,"Casablancastraat 4A, 2037 AZ Haarlem, Nederland",Fast Food,CERTIFICADOS / CERTIFIED,GF Social Internacional,GF Social Internacional,,,,,"https://www.google.com/maps/search/McDonald%27s+Haarlem+Casablancastraat/@52.358473,4.655205,17z"
McDonald's,52.379173200000004,4.633449699999999,"Grote Houtstraat 77, 2011 SK Haarlem, Nederland",Fast Food,CERTIFICADOS / CERTIFIED,GF Social Internacional,GF Social Internacional,,,,,"https://www.google.com/maps/search/McDonald%27s/@52.379173200000004,4.633449699999999,17z"
McDonald's,52.3538282,5.6304704,"Knardijk West 4, 3841 LA Harderwijk, Nederland",Fast Food,CERTIFICADOS / CERTIFIED,GF Social Internacional,GF Social Internacional,,,,,"https://www.google.com/maps/search/McDonald%27s/@52.3538282,5.6304704,17z"
McDonald's Hardinxveld-Giessendam,51.822632,4.80913,"Peulenlaan 263, 3371 XL Hardinxveld-Giessendam, Nederland",Fast Food,CERTIFICADOS / CERTIFIED,GF Social Internacional,GF Social Internacional,,,,,"https://www.google.com/maps/search/McDonald%27s+Hardinxveld-Giessendam/@51.822632,4.80913,17z"
McDonald's,53.1822395,5.462456800000001,"Fahrenheitstraat 3, 8861 NH Harlingen, Nederland",Fast Food,CERTIFICADOS / CERTIFIED,GF Social Internacional,GF Social Internacional,,,,,"https://www.google.com/maps/search/McDonald%27s/@53.1822395,5.462456800000001,17z"
McDonald's Den Hoorn Harnaschpolder,52.0114668,4.316632300000001,"McDrive, 2635 BN Den Hoorn, Nederland",Fast Food,CERTIFICADOS / CERTIFIED,GF Social Internacional,GF Social Internacional,,,,,"https://www.google.com/maps/search/McDonald%27s+Den+Hoorn+Harnaschpolder/@52.0114668,4.316632300000001,17z"
McDonald's Hazeldonk-Oost,51.49885279999999,4.743137700000001,"Hazeldonk 3, 4836 LB Breda, Nederland",Fast Food,CERTIFICADOS / CERTIFIED,GF Social Internacional,GF Social Internacional,,,,,"https://www.google.com/maps/search/McDonald%27s+Hazeldonk-Oost/@51.49885279999999,4.743137700000001,17z"
McDonald's,51.498494,4.740634,"Hazeldonk 5006, 4836 LZ Breda, Nederland",Fast Food,CERTIFICADOS / CERTIFIED,GF Social Internacional,GF Social Internacional,,,,,"https://www.google.com/maps/search/McDonald%27s/@51.498494,4.740634,17z"
McDonald's Heerde,52.37084000000001,6.022060400000001,"Eperweg 55b, 8181 EV Heerde, Nederland",Fast Food,CERTIFICADOS / CERTIFIED,GF Social Internacional,GF Social Internacional,,,,,"https://www.google.com/maps/search/McDonald%27s+Heerde/@52.37084000000001,6.022060400000001,17z"
McDonald's,52.661821,4.812660999999999,"Drive-Through, 1703 DJ Heerhugowaard, Nederland",Fast Food,CERTIFICADOS / CERTIFIED,GF Social Internacional,GF Social Internacional,,,,,"https://www.google.com/maps/search/McDonald%27s/@52.661821,4.812660999999999,17z"
McDonald's,52.287076,6.764505000000001,"McDrive, 7559 SR Hengelo, Nederland",Fast Food,CERTIFICADOS / CERTIFIED,GF Social Internacional,GF Social Internacional,,,,,"https://www.google.com/maps/search/McDonald%27s/@52.287076,6.764505000000001,17z"
McDonald's Hengelo Zuid,52.24171399999999,6.763484999999999,"Goudstraat 3, 7554 NG Hengelo, Nederland",Fast Food,CERTIFICADOS / CERTIFIED,GF Social Internacional,GF Social Internacional,,,,,"https://www.google.com/maps/search/McDonald%27s+Hengelo+Zuid/@52.24171399999999,6.763484999999999,17z"
McDonald's,51.9444249,5.757098399999999,"Polderstraat 41, 6666 LD Heteren, Nederland",Fast Food,CERTIFICADOS / CERTIFIED,GF Social Internacional,GF Social Internacional,,,,,"https://www.google.com/maps/search/McDonald%27s/@51.9444249,5.757098399999999,17z"
McDonald's,52.275958,4.572571,"Arnoudstraat 5, 2182 DZ Hillegom, Nederland",Fast Food,CERTIFICADOS / CERTIFIED,GF Social Internacional,GF Social Internacional,,,,,"https://www.google.com/maps/search/McDonald%27s/@52.275958,4.572571,17z"
McDonald's,52.2256625,5.1764917,"Oude Doelen 11, 1211 CH Hilversum, Nederland",Fast Food,CERTIFICADOS / CERTIFIED,GF Social Internacional,GF Social Internacional,,,,,"https://www.google.com/maps/search/McDonald%27s/@52.2256625,5.1764917,17z"
McDonald's,52.2210285,5.144356500000001,"Vreelandseweg 42, 1216 CH Hilversum, Nederland",Fast Food,CERTIFICADOS / CERTIFIED,GF Social Internacional,GF Social Internacional,,,,,"https://www.google.com/maps/search/McDonald%27s/@52.2210285,5.144356500000001,17z"
McDonald's Holten,52.2539282,6.4360322,"Rijksweg A1 7, 7451 NX Holten, Nederland",Fast Food,CERTIFICADOS / CERTIFIED,GF Social Internacional,GF Social Internacional,,,,,"https://www.google.com/maps/search/McDonald%27s+Holten/@52.2539282,6.4360322,17z"
McDonald's,52.28946,4.723360200000002,"Vuursteen 5, 2132 LZ Hoofddorp, Nederland",Fast Food,CERTIFICADOS / CERTIFIED,GF Social Internacional,GF Social Internacional,,,,,"https://www.google.com/maps/search/McDonald%27s/@52.28946,4.723360200000002,17z"
McDonald's,51.8744951,4.3580753,"Aveling 9, 3193 LC Hoogvliet, Nederland",Fast Food,CERTIFICADOS / CERTIFIED,GF Social Internacional,GF Social Internacional,,,,,"https://www.google.com/maps/search/McDonald%27s/@51.8744951,4.3580753,17z"
McDonald's,52.64792749999999,5.033529100000001,"Kleine Wijzend 1, 1647 DT Berkhout, Nederland",Fast Food,CERTIFICADOS / CERTIFIED,GF Social Internacional,GF Social Internacional,,,,,"https://www.google.com/maps/search/McDonald%27s/@52.64792749999999,5.033529100000001,17z"
McDonald’s Hoorn Noord,52.68023650000001,5.083923,"Jan Tinbergenweg 9, 1689 ZV Hoorn, Nederland",Fast Food,CERTIFICADOS / CERTIFIED,GF Social Internacional,GF Social Internacional,,,,,"https://www.google.com/maps/search/McDonald%E2%80%99s+Hoorn+Noord/@52.68023650000001,5.083923,17z"
McDonald's,52.11385139999999,5.260081,"Amersfoortseweg 24, 3712 BD Zeist, Nederland",Fast Food,CERTIFICADOS / CERTIFIED,GF Social Internacional,GF Social Internacional,,,,,"https://www.google.com/maps/search/McDonald%27s/@52.11385139999999,5.260081,17z"
McDonald's,52.01495060000001,5.062699500000001,"Lorentzlaan 1, 3401 MX IJsselstein, Nederland",Fast Food,CERTIFICADOS / CERTIFIED,GF Social Internacional,GF Social Internacional,,,,,"https://www.google.com/maps/search/McDonald%27s/@52.01495060000001,5.062699500000001,17z"
McDonald's,52.95853709999999,5.8117405,"Sewei 4, 8501 SP Joure, Nederland",Fast Food,CERTIFICADOS / CERTIFIED,GF Social Internacional,GF Social Internacional,,,,,"https://www.google.com/maps/search/McDonald%27s/@52.95853709999999,5.8117405,17z"
McDonald's,52.5575071,5.884605199999999,"Zambonistraat 7, 8263 CE Kampen, Nederland",Fast Food,CERTIFICADOS / CERTIFIED,GF Social Internacional,GF Social Internacional,,,,,"https://www.google.com/maps/search/McDonald%27s/@52.5575071,5.884605199999999,17z"
McDonald's McDrive,53.1792987,5.7971244,"Brédyk 1, 9084 AG Goutum, Nederland",Fast Food,CERTIFICADOS / CERTIFIED,GF Social Internacional,GF Social Internacional,,,,,"https://www.google.com/maps/search/McDonald%27s+McDrive/@53.1792987,5.7971244,17z"
McDonald's,52.16695359999999,4.4466632,"McDrive, 2342 BB Oegstgeest, Nederland",Fast Food,CERTIFICADOS / CERTIFIED,GF Social Internacional,GF Social Internacional,,,,,"https://www.google.com/maps/search/McDonald%27s/@52.16695359999999,4.4466632,17z"
McDonald's Leiden Beestenmarkt,52.162859999999995,4.485041000000001,"Beestenmarkt 5, 2312 CC Leiden, Nederland",Fast Food,CERTIFICADOS / CERTIFIED,GF Social Internacional,GF Social Internacional,,,,,"https://www.google.com/maps/search/McDonald%27s+Leiden+Beestenmarkt/@52.162859999999995,4.485041000000001,17z"
McDonald's Leiden Donkersteeg,52.16003509999999,4.4911338,"Stille Mare 2, 2312 DH Leiden, Nederland",Fast Food,CERTIFICADOS / CERTIFIED,GF Social Internacional,GF Social Internacional,,,,,"https://www.google.com/maps/search/McDonald%27s+Leiden+Donkersteeg/@52.16003509999999,4.4911338,17z"
McDonald's Leiderdorp,52.1603436,4.550203799999999,"Persant Snoepweg 10, 2353 KA Leiderdorp, Nederland",Fast Food,CERTIFICADOS / CERTIFIED,GF Social Internacional,GF Social Internacional,,,,,"https://www.google.com/maps/search/McDonald%27s+Leiderdorp/@52.1603436,4.550203799999999,17z"
McDonald's,52.103875,5.060231,"Hertogswetering 183, 3543 AS Utrecht, Nederland",Fast Food,CERTIFICADOS / CERTIFIED,GF Social Internacional,GF Social Internacional,,,,,"https://www.google.com/maps/search/McDonald%27s/@52.103875,5.060231,17z"
McDonald's,52.09026490000001,4.384237199999999,"Duindoorn 1, 2262 AR Leidschendam, Nederland",Fast Food,CERTIFICADOS / CERTIFIED,GF Social Internacional,GF Social Internacional,,,,,"https://www.google.com/maps/search/McDonald%27s/@52.09026490000001,4.384237199999999,17z"
McDonald's,52.482333399999995,5.5053933,"Larserplein 10, 8226 PB Lelystad, Nederland",Fast Food,CERTIFICADOS / CERTIFIED,GF Social Internacional,GF Social Internacional,,,,,"https://www.google.com/maps/search/McDonald%27s/@52.482333399999995,5.5053933,17z"
McDonald's,52.5227616,5.4389199,"Bataviaplein 60, 8242 PN Lelystad, Nederland",Fast Food,CERTIFICADOS / CERTIFIED,GF Social Internacional,GF Social Internacional,,,,,"https://www.google.com/maps/search/McDonald%27s/@52.5227616,5.4389199,17z"
McDonald's,52.1288601,5.035051200000001,"Planetenbaan 200, 3606 BB Maarssen, Nederland",Fast Food,CERTIFICADOS / CERTIFIED,GF Social Internacional,GF Social Internacional,,,,,"https://www.google.com/maps/search/McDonald%27s/@52.1288601,5.035051200000001,17z"
McDonald's,51.9697267,4.2120347,"McDrive, 2676 NB Maasdijk, Nederland",Fast Food,CERTIFICADOS / CERTIFIED,GF Social Internacional,GF Social Internacional,,,,,"https://www.google.com/maps/search/McDonald%27s/@51.9697267,4.2120347,17z"
McDonald's Maastricht Gronsveld,50.812366300000015,5.7214446,"Burgemeester Frans Cortenraadstraat 12A, 6247 NZ Rijckholt, Nederland",Fast Food,CERTIFICADOS / CERTIFIED,GF Social Internacional,GF Social Internacional,,,,,"https://www.google.com/maps/search/McDonald%27s+Maastricht+Gronsveld/@50.812366300000015,5.7214446,17z"
McDonald's,50.8499489,5.6889291,"Helmstraat 16, 6211 TA Maastricht, Nederland",Fast Food,CERTIFICADOS / CERTIFIED,GF Social Internacional,GF Social Internacional,,,,,"https://www.google.com/maps/search/McDonald%27s/@50.8499489,5.6889291,17z"
McDonald's,50.849585,5.700146999999998,"Wycker Brugstraat 16, 6221 EC Maastricht, Nederland",Fast Food,CERTIFICADOS / CERTIFIED,GF Social Internacional,GF Social Internacional,,,,,"https://www.google.com/maps/search/McDonald%27s/@50.849585,5.700146999999998,17z"
McDonald's,51.806369,5.852896,"Rijksweg 5F, 6581 EC Malden, Nederland",Fast Food,CERTIFICADOS / CERTIFIED,GF Social Internacional,GF Social Internacional,,,,,"https://www.google.com/maps/search/McDonald%27s/@51.806369,5.852896,17z"
McDonald's,52.694872,6.2050920000000005,"Blankenstein 570, 7943 PA Meppel, Nederland",Fast Food,CERTIFICADOS / CERTIFIED,GF Social Internacional,GF Social Internacional,,,,,"https://www.google.com/maps/search/McDonald%27s/@52.694872,6.2050920000000005,17z"
McDonald's,51.48311999999999,3.625049,"Bosschaartsweg 1, 4336 PB Middelburg, Nederland",Fast Food,CERTIFICADOS / CERTIFIED,GF Social Internacional,GF Social Internacional,,,,,"https://www.google.com/maps/search/McDonald%27s/@51.48311999999999,3.625049,17z"
McDonald's Moordrecht,51.9994649,4.6517607,"Middelweg 20b, 2841 LB Moordrecht, Nederland",Fast Food,CERTIFICADOS / CERTIFIED,GF Social Internacional,GF Social Internacional,,,,,"https://www.google.com/maps/search/McDonald%27s+Moordrecht/@51.9994649,4.6517607,17z"
McDonald’s,52.3226001,5.082514,"Rijksweg A1 NZ 3, 1398 PW Muiden, Nederland",Fast Food,CERTIFICADOS / CERTIFIED,GF Social Internacional,GF Social Internacional,,,,,"https://www.google.com/maps/search/McDonald%E2%80%99s/@52.3226001,5.082514,17z"
McDonald's,51.2775803,5.7395609000000025,"Randweg Zuid, 6031 TW Budschop, Nederland",Fast Food,CERTIFICADOS / CERTIFIED,GF Social Internacional,GF Social Internacional,,,,,"https://www.google.com/maps/search/McDonald%27s/@51.2775803,5.7395609000000025,17z"
McDonald's,52.04934120000001,5.118090499999999,"Ravenswade 1, 3439 LD Nieuwegein, Nederland",Fast Food,CERTIFICADOS / CERTIFIED,GF Social Internacional,GF Social Internacional,,,,,"https://www.google.com/maps/search/McDonald%27s/@52.04934120000001,5.118090499999999,17z"
McDonald's,52.04763750000001,5.087088200000001,"Symfonielaan 3, 3438 EX Nieuwegein, Nederland",Fast Food,CERTIFICADOS / CERTIFIED,GF Social Internacional,GF Social Internacional,,,,,"https://www.google.com/maps/search/McDonald%27s/@52.04763750000001,5.087088200000001,17z"
McDonald's,52.2405172,5.481891600000001,"Smitspol 7, 3861 RS Nijkerk, Nederland",Fast Food,CERTIFICADOS / CERTIFIED,GF Social Internacional,GF Social Internacional,,,,,"https://www.google.com/maps/search/McDonald%27s/@52.2405172,5.481891600000001,17z"
McDonald's,51.8253997,5.803559999999999,"Wijchenseweg, 6538 VJ Nijmegen, Nederland",Fast Food,CERTIFICADOS / CERTIFIED,GF Social Internacional,GF Social Internacional,,,,,"https://www.google.com/maps/search/McDonald%27s/@51.8253997,5.803559999999999,17z"
McDonald's Nijverdal/ Hellendoorn,52.3616993,6.509093099999999,"Albert Einsteinstraat 7, 7442 DK Nijverdal, Nederland",Fast Food,CERTIFICADOS / CERTIFIED,GF Social Internacional,GF Social Internacional,,,,,"https://www.google.com/maps/search/McDonald%27s+Nijverdal%2F+Hellendoorn/@52.3616993,6.509093099999999,17z"
McDonald's Oldenzaal,52.285079,6.92852,"Hanzepoort 2, 7575 DA Oldenzaal, Nederland",Fast Food,CERTIFICADOS / CERTIFIED,GF Social Internacional,GF Social Internacional,,,,,"https://www.google.com/maps/search/McDonald%27s+Oldenzaal/@52.285079,6.92852,17z"
McDonald's,51.6737218,4.8243398,"Innovatiepark 5, 4906 AA Oosterhout, Nederland",Fast Food,CERTIFICADOS / CERTIFIED,GF Social Internacional,GF Social Internacional,,,,,"https://www.google.com/maps/search/McDonald%27s/@51.6737218,4.8243398,17z"
McDonald's,51.5665517,4.4708066,"Emmerblok 2a, 4751 XE Oud Gastel, Nederland",Fast Food,CERTIFICADOS / CERTIFIED,GF Social Internacional,GF Social Internacional,,,,,"https://www.google.com/maps/search/McDonald%27s/@51.5665517,4.4708066,17z"
McDonald's Oosterhout,51.89228,5.830027099999998,"Rietgraaf 15, 6678 PJ Oosterhout, Nederland",Fast Food,CERTIFICADOS / CERTIFIED,GF Social Internacional,GF Social Internacional,,,,,"https://www.google.com/maps/search/McDonald%27s+Oosterhout/@51.89228,5.830027099999998,17z"
McDonald's,52.4858074,4.950998999999999,"Verzetslaan 2, 1447 XX Purmerend, Nederland",Fast Food,CERTIFICADOS / CERTIFIED,GF Social Internacional,GF Social Internacional,,,,,"https://www.google.com/maps/search/McDonald%27s/@52.4858074,4.950998999999999,17z"
McDonald's,51.87514799999999,4.60464,"Rotterdamseweg 17, 2984 CA Ridderkerk, Nederland",Fast Food,CERTIFICADOS / CERTIFIED,GF Social Internacional,GF Social Internacional,,,,,"https://www.google.com/maps/search/McDonald%27s/@51.87514799999999,4.60464,17z"
McDonald's,52.0360112,4.316250099999999,"Bogaardplein 12, 2284 DM Rijswijk, Nederland",Fast Food,CERTIFICADOS / CERTIFIED,GF Social Internacional,GF Social Internacional,,,,,"https://www.google.com/maps/search/McDonald%27s/@52.0360112,4.316250099999999,17z"
McDonald's Rijswijk Plaspoelpolder,52.03679459999999,4.335649299999999,"Polakweg 2, 2288 GE Rijswijk, Nederland",Fast Food,CERTIFICADOS / CERTIFIED,GF Social Internacional,GF Social Internacional,,,,,"https://www.google.com/maps/search/McDonald%27s+Rijswijk+Plaspoelpolder/@52.03679459999999,4.335649299999999,17z"
McDonald's,51.1939286,5.989874599999999,"Leliestraat 2F, 6041 GZ Roermond, Nederland",Fast Food,CERTIFICADOS / CERTIFIED,GF Social Internacional,GF Social Internacional,,,,,"https://www.google.com/maps/search/McDonald%27s/@51.1939286,5.989874599999999,17z"
McDonald's,51.535088,4.484500000000001,"Takspui 2, 4706 CM Roosendaal, Nederland",Fast Food,CERTIFICADOS / CERTIFIED,GF Social Internacional,GF Social Internacional,,,,,"https://www.google.com/maps/search/McDonald%27s/@51.535088,4.484500000000001,17z"
McDonald's,51.86852140000001,4.453560500000001,"Driemanssteeweg 10, 3084 CB Rotterdam, Nederland",Fast Food,CERTIFICADOS / CERTIFIED,GF Social Internacional,GF Social Internacional,,,,,"https://www.google.com/maps/search/McDonald%27s/@51.86852140000001,4.453560500000001,17z"
McDonald's Rotterdam Coolsingel 207,51.9181521,4.480202800000001,"Coolsingel 231, 3012 AG Rotterdam, Nederland",Fast Food,CERTIFICADOS / CERTIFIED,GF Social Internacional,GF Social Internacional,,,,,"https://www.google.com/maps/search/McDonald%27s+Rotterdam+Coolsingel+207/@51.9181521,4.480202800000001,17z"
McDonald's Rotterdam Coolsingel 44,51.9216181,4.4797287,"Coolsingel 44, 3011 AD Rotterdam, Nederland",Fast Food,CERTIFICADOS / CERTIFIED,GF Social Internacional,GF Social Internacional,,,,,"https://www.google.com/maps/search/McDonald%27s+Rotterdam+Coolsingel+44/@51.9216181,4.4797287,17z"
McDonald's,51.9103897,4.435441399999999,"Dakpark, 3025 NT Rotterdam, Nederland",Fast Food,CERTIFICADOS / CERTIFIED,GF Social Internacional,GF Social Internacional,,,,,"https://www.google.com/maps/search/McDonald%27s/@51.9103897,4.435441399999999,17z"
McDonald's,51.8947722,4.531609,"Stadionweg 44, 3078 HV Rotterdam, Nederland",Fast Food,CERTIFICADOS / CERTIFIED,GF Social Internacional,GF Social Internacional,,,,,"https://www.google.com/maps/search/McDonald%27s/@51.8947722,4.531609,17z"
McDonald's,51.8868124,4.490267600000001,"Zuidplein Hoog 523, 3083 BG Rotterdam, Nederland",Fast Food,CERTIFICADOS / CERTIFIED,GF Social Internacional,GF Social Internacional,,,,,"https://www.google.com/maps/search/McDonald%27s/@51.8868124,4.490267600000001,17z"
McDonald's,52.4256804,4.6467307,"Vlietweg 16, 2071 KW Santpoort-Noord, Nederland",Fast Food,CERTIFICADOS / CERTIFIED,GF Social Internacional,GF Social Internacional,,,,,"https://www.google.com/maps/search/McDonald%27s/@52.4256804,4.6467307,17z"
McDonald's Sassenheim,52.2149151,4.514322999999999,"Rijksweg A44, 2171 KZ Warmond, Nederland",Fast Food,CERTIFICADOS / CERTIFIED,GF Social Internacional,GF Social Internacional,,,,,"https://www.google.com/maps/search/McDonald%27s+Sassenheim/@52.2149151,4.514322999999999,17z"
McDonald's,52.7821876,4.808852399999999,"Grotewallerweg 2M, 1742 NM Schagen, Nederland",Fast Food,CERTIFICADOS / CERTIFIED,GF Social Internacional,GF Social Internacional,,,,,"https://www.google.com/maps/search/McDonald%27s/@52.7821876,4.808852399999999,17z"
McDonald's Airport Schiphol Lounge 2,52.3091073,4.7646974,"Panorama Boulevard, 1118 CB Haarlemmermeer, Nederland",Fast Food,CERTIFICADOS / CERTIFIED,GF Social Internacional,GF Social Internacional,,,,,"https://www.google.com/maps/search/McDonald%27s+Airport+Schiphol+Lounge+2/@52.3091073,4.7646974,17z"
McDonald's,52.31096599999999,4.760685699999999,"Rinse Hofstraweg, 1118 AW Haarlemmermeer, Nederland",Fast Food,CERTIFICADOS / CERTIFIED,GF Social Internacional,GF Social Internacional,,,,,"https://www.google.com/maps/search/McDonald%27s/@52.31096599999999,4.760685699999999,17z"
McDonald's,52.32106499999999,4.792317,"Loevesteinse Randweg, 1118 AN Haarlemmermeer, Nederland",Fast Food,CERTIFICADOS / CERTIFIED,GF Social Internacional,GF Social Internacional,,,,,"https://www.google.com/maps/search/McDonald%27s/@52.32106499999999,4.792317,17z"
McDonald's,50.99445499999999,5.842085,"Lissabonlaan 6, 6135 LE Sittard, Nederland",Fast Food,CERTIFICADOS / CERTIFIED,GF Social Internacional,GF Social Internacional,,,,,"https://www.google.com/maps/search/McDonald%27s/@50.99445499999999,5.842085,17z"
McDonald's McDrive,53.0348619,5.6222694,"Wolkammersstraat 8, 8601 VB Sneek, Nederland",Fast Food,CERTIFICADOS / CERTIFIED,GF Social Internacional,GF Social Internacional,,,,,"https://www.google.com/maps/search/McDonald%27s+McDrive/@53.0348619,5.6222694,17z"
McDonald's,51.85963899999999,4.292684,"Borgtweg 2, 3202 LJ Spijkenisse, Nederland",Fast Food,CERTIFICADOS / CERTIFIED,GF Social Internacional,GF Social Internacional,,,,,"https://www.google.com/maps/search/McDonald%27s/@51.85963899999999,4.292684,17z"
McDonald's,52.799268,6.120293999999999,"Woldmeentherand 21, 8332 JE Steenwijk, Nederland",Fast Food,CERTIFICADOS / CERTIFIED,GF Social Internacional,GF Social Internacional,,,,,"https://www.google.com/maps/search/McDonald%27s/@52.799268,6.120293999999999,17z"
McDonald's Venlo Tegelen,51.35144460000001,6.152418700000001,"Ariënsstraat 98, 5912 PZ Venlo, Nederland",Fast Food,CERTIFICADOS / CERTIFIED,GF Social Internacional,GF Social Internacional,,,,,"https://www.google.com/maps/search/McDonald%27s+Venlo+Tegelen/@51.35144460000001,6.152418700000001,17z"
McDonalds’s Ter Borch,53.1958619,6.517369699999999,"Oriëntatielaan 1, 9766 ZA Eelderwolde, Nederland",Fast Food,CERTIFICADOS / CERTIFIED,GF Social Internacional,GF Social Internacional,,,,,"https://www.google.com/maps/search/McDonalds%E2%80%99s+Ter+Borch/@53.1958619,6.517369699999999,17z"
McDonald's Uden McDrive,51.6708201,5.600813899999999,"Voskestraat 3, 5406 PN Uden, Nederland",Fast Food,CERTIFICADOS / CERTIFIED,GF Social Internacional,GF Social Internacional,,,,,"https://www.google.com/maps/search/McDonald%27s+Uden+McDrive/@51.6708201,5.600813899999999,17z"
McDonald's,51.5930309,5.1703111,"Kreitenmolenstraat 300, 5071 ND Udenhout, Nederland",Fast Food,CERTIFICADOS / CERTIFIED,GF Social Internacional,GF Social Internacional,,,,,"https://www.google.com/maps/search/McDonald%27s/@51.5930309,5.1703111,17z"
McDonald's,52.2558847,4.8252685,"Zijdelweg 15A, 1187 ZM Amstelveen, Nederland",Fast Food,CERTIFICADOS / CERTIFIED,GF Social Internacional,GF Social Internacional,,,,,"https://www.google.com/maps/search/McDonald%27s/@52.2558847,4.8252685,17z"
McDonald's,52.09154179999999,5.1114708,"Gildenkwartier 195, 3511 DG Utrecht, Nederland",Fast Food,CERTIFICADOS / CERTIFIED,GF Social Internacional,GF Social Internacional,,,,,"https://www.google.com/maps/search/McDonald%27s/@52.09154179999999,5.1114708,17z"
McDonald's,52.093419,5.116018000000001,"Lange Viestraat 3, 3511 BK Utrecht, Nederland",Fast Food,CERTIFICADOS / CERTIFIED,GF Social Internacional,GF Social Internacional,,,,,"https://www.google.com/maps/search/McDonald%27s/@52.093419,5.116018000000001,17z"
McDonald's,52.11433,5.1111851,"Roelantdreef, 3562 JT Utrecht, Nederland",Fast Food,CERTIFICADOS / CERTIFIED,GF Social Internacional,GF Social Internacional,,,,,"https://www.google.com/maps/search/McDonald%27s/@52.11433,5.1111851,17z"
McDonald's,52.04305369999999,5.5564168,"Traverse, 3905 MC Veenendaal, Nederland",Fast Food,CERTIFICADOS / CERTIFIED,GF Social Internacional,GF Social Internacional,,,,,"https://www.google.com/maps/search/McDonald%27s/@52.04305369999999,5.5564168,17z"
McDonald's,51.436197,5.422234,"Noord Brabantlaan 350, 5657 GA Eindhoven, Nederland",Fast Food,CERTIFICADOS / CERTIFIED,GF Social Internacional,GF Social Internacional,,,,,"https://www.google.com/maps/search/McDonald%27s/@51.436197,5.422234,17z"
McDonald's,51.91749720000001,4.332528,"Arnoldus Soekstraat, 3131 NG Vlaardingen, Nederland",Fast Food,CERTIFICADOS / CERTIFIED,GF Social Internacional,GF Social Internacional,,,,,"https://www.google.com/maps/search/McDonald%27s/@51.91749720000001,4.332528,17z"
McDonald's Waardenburg,51.8315049,5.249541199999999,"Regterweistraat 1, 4181 CE Waardenburg, Nederland",Fast Food,CERTIFICADOS / CERTIFIED,GF Social Internacional,GF Social Internacional,,,,,"https://www.google.com/maps/search/McDonald%27s+Waardenburg/@51.8315049,5.249541199999999,17z"
McDonald's,52.010108,4.293758,"Wippolderlaan, 2291 HZ Wateringen, Nederland",Fast Food,CERTIFICADOS / CERTIFIED,GF Social Internacional,GF Social Internacional,,,,,"https://www.google.com/maps/search/McDonald%27s/@52.010108,4.293758,17z"
McDonald's Weert Centrum,51.254279,5.70648,"Markt 19, 6001 EJ Weert, Nederland",Fast Food,CERTIFICADOS / CERTIFIED,GF Social Internacional,GF Social Internacional,,,,,"https://www.google.com/maps/search/McDonald%27s+Weert+Centrum/@51.254279,5.70648,17z"
McDonald's,51.974326,6.703601,"Europark, 7101 RS Winterswijk, Nederland",Fast Food,CERTIFICADOS / CERTIFIED,GF Social Internacional,GF Social Internacional,,,,,"https://www.google.com/maps/search/McDonald%27s/@51.974326,6.703601,17z"
McDonald's,52.07715420000001,4.904319700000001,"Botnische golf 1, 3446 CN Woerden, Nederland",Fast Food,CERTIFICADOS / CERTIFIED,GF Social Internacional,GF Social Internacional,,,,,"https://www.google.com/maps/search/McDonald%27s/@52.07715420000001,4.904319700000001,17z"
McDonald's,52.4536026,4.824059399999999,"Koningin Julianaweg 45, 1502 DZ Zaandam, Nederland",Fast Food,CERTIFICADOS / CERTIFIED,GF Social Internacional,GF Social Internacional,,,,,"https://www.google.com/maps/search/McDonald%27s/@52.4536026,4.824059399999999,17z"
McDonald's,52.42738379999999,4.820716500000001,"Stormhoek 1;3, 1506 SW Zaandam, Nederland",Fast Food,CERTIFICADOS / CERTIFIED,GF Social Internacional,GF Social Internacional,,,,,"https://www.google.com/maps/search/McDonald%27s/@52.42738379999999,4.820716500000001,17z"
McDonald's,52.061131,4.487543,"Promenade 17, 2711 AL Zoetermeer, Nederland",Fast Food,CERTIFICADOS / CERTIFIED,GF Social Internacional,GF Social Internacional,,,,,"https://www.google.com/maps/search/McDonald%27s/@52.061131,4.487543,17z"
McDonald's,52.044132,4.501720000000001,"Zilverstraat 2, 2718 RL Zoetermeer, Nederland",Fast Food,CERTIFICADOS / CERTIFIED,GF Social Internacional,GF Social Internacional,,,,,"https://www.google.com/maps/search/McDonald%27s/@52.044132,4.501720000000001,17z"
McDonald's,52.5224281,6.1167705,"Floresstraat 60, 8022 AD Zwolle, Nederland",Fast Food,CERTIFICADOS / CERTIFIED,GF Social Internacional,GF Social Internacional,,,,,"https://www.google.com/maps/search/McDonald%27s/@52.5224281,6.1167705,17z"
McDonald's,52.49631669999999,6.1166605,"Huub van Doornestraat 8, 8013 NR Zwolle, Nederland",Fast Food,CERTIFICADOS / CERTIFIED,GF Social Internacional,GF Social Internacional,,,,,"https://www.google.com/maps/search/McDonald%27s/@52.49631669999999,6.1166605,17z"
McDonald's,51.7194739,5.335612199999999,"Burgemeester Burgerslaan 48, 5245 NH Rosmalen, Nederland",Fast Food,CERTIFICADOS / CERTIFIED,GF Social Internacional,GF Social Internacional,,,,,"https://www.google.com/maps/search/McDonald%27s/@51.7194739,5.335612199999999,17z"
McDonald's,52.9806365,6.9648533,"Hoogveen, 9501 XK Stadskanaal, Nederland",Fast Food,CERTIFICADOS / CERTIFIED,GF Social Internacional,GF Social Internacional,,,,,"https://www.google.com/maps/search/McDonald%27s/@52.9806365,6.9648533,17z"
Domino's Pizza - Abbots Langley,51.6985837,-0.4254813999999999,"School Mead 28, WD5 0LA Three Rivers, United Kingdom",Fast Food,CERTIFICADOS / CERTIFIED,GF Social Internacional,GF Social Internacional,,,,,"https://www.google.com/maps/search/Domino%27s+Pizza+-+Abbots+Langley/@51.6985837,-0.4254813999999999,17z"
Domino's Pizza - Aberdare,51.7020582,-3.4203989,"Ffordd Tirwaun, CF44 0AH Cwmbach, United Kingdom",Fast Food,CERTIFICADOS / CERTIFIED,GF Social Internacional,GF Social Internacional,,,,,"https://www.google.com/maps/search/Domino%27s+Pizza+-+Aberdare/@51.7020582,-3.4203989,17z"
Domino's Pizza - Aberdeen - Bridge of Don,57.1914233,-2.1217004,"Jesmond Drive, AB22 8UR Aberdeen City, United Kingdom",Fast Food,CERTIFICADOS / CERTIFIED,GF Social Internacional,GF Social Internacional,,,,,"https://www.google.com/maps/search/Domino%27s+Pizza+-+Aberdeen+-+Bridge+of+Don/@57.1914233,-2.1217004,17z"
Domino's Pizza - Aberdeen - Cults,57.11807730000001,-2.1743592,"North Deeside Road, AB15 9SD Aberdeen City, United Kingdom",Fast Food,CERTIFICADOS / CERTIFIED,GF Social Internacional,GF Social Internacional,,,,,"https://www.google.com/maps/search/Domino%27s+Pizza+-+Aberdeen+-+Cults/@57.11807730000001,-2.1743592,17z"
Domino's Pizza - Aberdeen - Kittybrewster,57.1617905,-2.1174784,"Clifton Road 6-7, AB24 4RZ Aberdeen City, United Kingdom",Fast Food,CERTIFICADOS / CERTIFIED,GF Social Internacional,GF Social Internacional,,,,,"https://www.google.com/maps/search/Domino%27s+Pizza+-+Aberdeen+-+Kittybrewster/@57.1617905,-2.1174784,17z"
Domino's Pizza - Aberdeen - Lang Stracht,57.1515155,-2.1521539,"Summerhill Drive 19, AB15 6TT Aberdeen City, United Kingdom",Fast Food,CERTIFICADOS / CERTIFIED,GF Social Internacional,GF Social Internacional,,,,,"https://www.google.com/maps/search/Domino%27s+Pizza+-+Aberdeen+-+Lang+Stracht/@57.1515155,-2.1521539,17z"
Domino's Pizza - Aberdeen - Torry,57.12960519999999,-2.091875599999999,"Wellington Road 67, AB12 3DP Aberdeen City, United Kingdom",Fast Food,CERTIFICADOS / CERTIFIED,GF Social Internacional,GF Social Internacional,,,,,"https://www.google.com/maps/search/Domino%27s+Pizza+-+Aberdeen+-+Torry/@57.12960519999999,-2.091875599999999,17z"
Domino's Pizza - Aberdeen - Westhill,57.1537086,-2.2784696,"Old Skene Road, AB32 6RL Westhill, United Kingdom",Fast Food,CERTIFICADOS / CERTIFIED,GF Social Internacional,GF Social Internacional,,,,,"https://www.google.com/maps/search/Domino%27s+Pizza+-+Aberdeen+-+Westhill/@57.1537086,-2.2784696,17z"
Domino's Pizza - Abergavenny,51.8242696,-3.0179693,"King Street 1, NP7 5SE Abergavenny, United Kingdom",Fast Food,CERTIFICADOS / CERTIFIED,GF Social Internacional,GF Social Internacional,,,,,"https://www.google.com/maps/search/Domino%27s+Pizza+-+Abergavenny/@51.8242696,-3.0179693,17z"
Domino's Pizza - Aberystwyth,52.4147513,-4.081186199999999,"Alexandra Road, SY23 1LN Aberystwyth, United Kingdom",Fast Food,CERTIFICADOS / CERTIFIED,GF Social Internacional,GF Social Internacional,,,,,"https://www.google.com/maps/search/Domino%27s+Pizza+-+Aberystwyth/@52.4147513,-4.081186199999999,17z"
Domino's Pizza - Abingdon,51.66943220000001,-1.2916592,"Ock Street 135, OX14 5DL Vale of White Horse, United Kingdom",Fast Food,CERTIFICADOS / CERTIFIED,GF Social Internacional,GF Social Internacional,,,,,"https://www.google.com/maps/search/Domino%27s+Pizza+-+Abingdon/@51.66943220000001,-1.2916592,17z"
Domino's Pizza - Accrington,53.7542273,-2.3690283,"King Street, BB5 1QF Hyndburn, United Kingdom",Fast Food,CERTIFICADOS / CERTIFIED,GF Social Internacional,GF Social Internacional,,,,,"https://www.google.com/maps/search/Domino%27s+Pizza+-+Accrington/@53.7542273,-2.3690283,17z"
Domino's Pizza - Addlestone,51.3719112,-0.4859074,"Station Road 144, KT15 2BE Runnymede, United Kingdom",Fast Food,CERTIFICADOS / CERTIFIED,GF Social Internacional,GF Social Internacional,,,,,"https://www.google.com/maps/search/Domino%27s+Pizza+-+Addlestone/@51.3719112,-0.4859074,17z"
Domino's Pizza - Airdrie,55.86844139999999,-3.984951399999999,"High Street 22A, ML6 0DT Airdrie, United Kingdom",Fast Food,CERTIFICADOS / CERTIFIED,GF Social Internacional,GF Social Internacional,,,,,"https://www.google.com/maps/search/Domino%27s+Pizza+-+Airdrie/@55.86844139999999,-3.984951399999999,17z"
Domino's Pizza - Aldershot,51.2483081,-0.7630880999999999,"Victoria Road 111-113, GU11 1JE Rushmoor, United Kingdom",Fast Food,CERTIFICADOS / CERTIFIED,GF Social Internacional,GF Social Internacional,,,,,"https://www.google.com/maps/search/Domino%27s+Pizza+-+Aldershot/@51.2483081,-0.7630880999999999,17z"
Domino's Pizza - Aldridge,52.6040963,-1.9181062,"Anchor Parade 1, WS9 8QP Aldridge, United Kingdom",Fast Food,CERTIFICADOS / CERTIFIED,GF Social Internacional,GF Social Internacional,,,,,"https://www.google.com/maps/search/Domino%27s+Pizza+-+Aldridge/@52.6040963,-1.9181062,17z"
Domino's Pizza - Alfreton,53.097794,-1.3858588,"High Street 119, DE55 7DP Amber Valley, United Kingdom",Fast Food,CERTIFICADOS / CERTIFIED,GF Social Internacional,GF Social Internacional,,,,,"https://www.google.com/maps/search/Domino%27s+Pizza+-+Alfreton/@53.097794,-1.3858588,17z"
Domino's Pizza - Alloa,56.1142936,-3.7911242000000005,"East Vennel 4, FK10 1ED Alloa, United Kingdom",Fast Food,CERTIFICADOS / CERTIFIED,GF Social Internacional,GF Social Internacional,,,,,"https://www.google.com/maps/search/Domino%27s+Pizza+-+Alloa/@56.1142936,-3.7911242000000005,17z"
Domino's Pizza - Alsager,53.09683159999999,-2.3026928,"Lawton Road, ST7 2AA Alsager, United Kingdom",Fast Food,CERTIFICADOS / CERTIFIED,GF Social Internacional,GF Social Internacional,,,,,"https://www.google.com/maps/search/Domino%27s+Pizza+-+Alsager/@53.09683159999999,-2.3026928,17z"
Domino's Pizza - Alton,51.1493152,-0.9746855999999999,"High Street 17, GU34 1AW East Hampshire, United Kingdom",Fast Food,CERTIFICADOS / CERTIFIED,GF Social Internacional,GF Social Internacional,,,,,"https://www.google.com/maps/search/Domino%27s+Pizza+-+Alton/@51.1493152,-0.9746855999999999,17z"
Domino's Pizza - Altrincham - Broadheath,53.400893,-2.3530408,"Huxley Street, WA14 5EU Trafford, United Kingdom",Fast Food,CERTIFICADOS / CERTIFIED,GF Social Internacional,GF Social Internacional,,,,,"https://www.google.com/maps/search/Domino%27s+Pizza+-+Altrincham+-+Broadheath/@53.400893,-2.3530408,17z"
Domino's Pizza - Altrincham - Central,53.3875186,-2.348666300000001,"Stamford New Road, WA14 1EJ Trafford, United Kingdom",Fast Food,CERTIFICADOS / CERTIFIED,GF Social Internacional,GF Social Internacional,,,,,"https://www.google.com/maps/search/Domino%27s+Pizza+-+Altrincham+-+Central/@53.3875186,-2.348666300000001,17z"
Domino's Pizza - Alverstoke,50.7926379,-1.1500004,"The Avenue 2-6, PO12 2JR Gosport, United Kingdom",Fast Food,CERTIFICADOS / CERTIFIED,GF Social Internacional,GF Social Internacional,,,,,"https://www.google.com/maps/search/Domino%27s+Pizza+-+Alverstoke/@50.7926379,-1.1500004,17z"
Domino's Pizza - Amersham,51.67799939999999,-0.6058243999999999,"Sycamore Road 72, HP6 5DR Amersham, United Kingdom",Fast Food,CERTIFICADOS / CERTIFIED,GF Social Internacional,GF Social Internacional,,,,,"https://www.google.com/maps/search/Domino%27s+Pizza+-+Amersham/@51.67799939999999,-0.6058243999999999,17z"
Domino's Pizza - Amesbury,51.17160149999999,-1.7799798,"Salisbury Street 44, SP4 7HD Salisbury, United Kingdom",Fast Food,CERTIFICADOS / CERTIFIED,GF Social Internacional,GF Social Internacional,,,,,"https://www.google.com/maps/search/Domino%27s+Pizza+-+Amesbury/@51.17160149999999,-1.7799798,17z"
Domino's Pizza - Ammanford,51.7930359,-3.9888083,"College Street, SA18 3AL Ammanford, United Kingdom",Fast Food,CERTIFICADOS / CERTIFIED,GF Social Internacional,GF Social Internacional,,,,,"https://www.google.com/maps/search/Domino%27s+Pizza+-+Ammanford/@51.7930359,-3.9888083,17z"
Domino's Pizza - Andover,51.2063172,-1.4800413,"Bridge Street, SP10 1BH Test Valley, United Kingdom",Fast Food,CERTIFICADOS / CERTIFIED,GF Social Internacional,GF Social Internacional,,,,,"https://www.google.com/maps/search/Domino%27s+Pizza+-+Andover/@51.2063172,-1.4800413,17z"
Domino's Pizza - Antrim,54.7135727,-6.2148675,"Church Street 68-70, BT41 4BA Antrim, United Kingdom",Fast Food,CERTIFICADOS / CERTIFIED,GF Social Internacional,GF Social Internacional,,,,,"https://www.google.com/maps/search/Domino%27s+Pizza+-+Antrim/@54.7135727,-6.2148675,17z"
Domino's Pizza - Arbroath,56.56630269999999,-2.608529,"Condor Drive 5, DD11 3EP Arbroath, United Kingdom",Fast Food,CERTIFICADOS / CERTIFIED,GF Social Internacional,GF Social Internacional,,,,,"https://www.google.com/maps/search/Domino%27s+Pizza+-+Arbroath/@56.56630269999999,-2.608529,17z"
Domino's Pizza - Armagh,54.347807499999995,-6.650855699999999,"The Mall West, BT61 9AN Armagh, United Kingdom",Fast Food,CERTIFICADOS / CERTIFIED,GF Social Internacional,GF Social Internacional,,,,,"https://www.google.com/maps/search/Domino%27s+Pizza+-+Armagh/@54.347807499999995,-6.650855699999999,17z"
Domino's Pizza - Ashford,51.15073009999999,0.8759566999999998,"Somerset Road, TN24 8AA Ashford, United Kingdom",Fast Food,CERTIFICADOS / CERTIFIED,GF Social Internacional,GF Social Internacional,,,,,"https://www.google.com/maps/search/Domino%27s+Pizza+-+Ashford/@51.15073009999999,0.8759566999999998,17z"
Domino's Pizza - Ashford - South,51.1232598,0.8651278,"Moat Field Meadow, TN23 3LU Ashford, United Kingdom",Fast Food,CERTIFICADOS / CERTIFIED,GF Social Internacional,GF Social Internacional,,,,,"https://www.google.com/maps/search/Domino%27s+Pizza+-+Ashford+-+South/@51.1232598,0.8651278,17z"
Domino's Pizza - Ashington,55.185550199999994,-1.587503299999999,"Morpeth Road, NE63 8QG Ashington, United Kingdom",Fast Food,CERTIFICADOS / CERTIFIED,GF Social Internacional,GF Social Internacional,,,,,"https://www.google.com/maps/search/Domino%27s+Pizza+-+Ashington/@55.185550199999994,-1.587503299999999,17z"
Domino's Pizza - Ashton-Under-Lyne,53.48682660000001,-2.0952982,"Stamford Street Central 218, OL6 7LP Tameside, United Kingdom",Fast Food,CERTIFICADOS / CERTIFIED,GF Social Internacional,GF Social Internacional,,,,,"https://www.google.com/maps/search/Domino%27s+Pizza+-+Ashton-Under-Lyne/@53.48682660000001,-2.0952982,17z"
Domino's Pizza - Aylesbury - Cambridge Street,51.8186232,-0.8108647999999999,"Cambridge Street 64, HP20 1RS Aylesbury, United Kingdom",Fast Food,CERTIFICADOS / CERTIFIED,GF Social Internacional,GF Social Internacional,,,,,"https://www.google.com/maps/search/Domino%27s+Pizza+-+Aylesbury+-+Cambridge+Street/@51.8186232,-0.8108647999999999,17z"
Domino's Pizza - Aylesbury - Jansel Square,51.8059897,-0.7848748,"Camborne Avenue 1A, HP21 7ES Aylesbury, United Kingdom",Fast Food,CERTIFICADOS / CERTIFIED,GF Social Internacional,GF Social Internacional,,,,,"https://www.google.com/maps/search/Domino%27s+Pizza+-+Aylesbury+-+Jansel+Square/@51.8059897,-0.7848748,17z"
Domino's Pizza - Ayr,55.46853910000001,-4.6282327,"Allison Street 17, KA8 8HD Ayr, United Kingdom",Fast Food,CERTIFICADOS / CERTIFIED,GF Social Internacional,GF Social Internacional,,,,,"https://www.google.com/maps/search/Domino%27s+Pizza+-+Ayr/@55.46853910000001,-4.6282327,17z"
Domino's Pizza - Bagshot,51.36181079999999,-0.6922941999999999,"High Street 61, GU19 5AH Surrey Heath, United Kingdom",Fast Food,CERTIFICADOS / CERTIFIED,GF Social Internacional,GF Social Internacional,,,,,"https://www.google.com/maps/search/Domino%27s+Pizza+-+Bagshot/@51.36181079999999,-0.6922941999999999,17z"
Domino's Pizza - Ballina,54.115152,-9.1517948,"McAndrew's Lane, Ballina, Éire / Ireland",Fast Food,CERTIFICADOS / CERTIFIED,GF Social Internacional,GF Social Internacional,,,,,"https://www.google.com/maps/search/Domino%27s+Pizza+-+Ballina/@54.115152,-9.1517948,17z"
Domino's Pizza - Ballyclare,54.7527901,-6.0023386,"The Square 50, BT39 9BB Ballyclare, United Kingdom",Fast Food,CERTIFICADOS / CERTIFIED,GF Social Internacional,GF Social Internacional,,,,,"https://www.google.com/maps/search/Domino%27s+Pizza+-+Ballyclare/@54.7527901,-6.0023386,17z"
Domino's Pizza - Ballymena,54.86534320000001,-6.280840399999999,"Smithfield Place, BT43 5EX Ballymena, United Kingdom",Fast Food,CERTIFICADOS / CERTIFIED,GF Social Internacional,GF Social Internacional,,,,,"https://www.google.com/maps/search/Domino%27s+Pizza+-+Ballymena/@54.86534320000001,-6.280840399999999,17z"
Domino's Pizza - Balsall Common,52.39211539999999,-1.6496769,"Station Road 209, CV7 7FE Solihull, United Kingdom",Fast Food,CERTIFICADOS / CERTIFIED,GF Social Internacional,GF Social Internacional,,,,,"https://www.google.com/maps/search/Domino%27s+Pizza+-+Balsall+Common/@52.39211539999999,-1.6496769,17z"
Domino's Pizza - Banbridge,54.3476142,-6.2713148,"Newry Street, BT32 3EA Banbridge, United Kingdom",Fast Food,CERTIFICADOS / CERTIFIED,GF Social Internacional,GF Social Internacional,,,,,"https://www.google.com/maps/search/Domino%27s+Pizza+-+Banbridge/@54.3476142,-6.2713148,17z"
Domino's Pizza - Banbury,52.0591113,-1.3401407,"South Bar Street, OX16 9AB Cherwell, United Kingdom",Fast Food,CERTIFICADOS / CERTIFIED,GF Social Internacional,GF Social Internacional,,,,,"https://www.google.com/maps/search/Domino%27s+Pizza+-+Banbury/@52.0591113,-1.3401407,17z"
Domino's Pizza - Bangor Ashbury,54.64827,-5.635583100000001,"Carlton Park, BT19 6TH Bangor, United Kingdom",Fast Food,CERTIFICADOS / CERTIFIED,GF Social Internacional,GF Social Internacional,,,,,"https://www.google.com/maps/search/Domino%27s+Pizza+-+Bangor+Ashbury/@54.64827,-5.635583100000001,17z"
Domino's Pizza - Bangor (Northern Ireland),54.65696330000001,-5.6740909,"Abbey Street 96, BT20 4JB Bangor, United Kingdom",Fast Food,CERTIFICADOS / CERTIFIED,GF Social Internacional,GF Social Internacional,,,,,"https://www.google.com/maps/search/Domino%27s+Pizza+-+Bangor+%28Northern+Ireland%29/@54.65696330000001,-5.6740909,17z"
Domino's Pizza - Bangor (Wales),53.2225656,-4.1326502,"High Street, LL57 1NP Bangor, United Kingdom",Fast Food,CERTIFICADOS / CERTIFIED,GF Social Internacional,GF Social Internacional,,,,,"https://www.google.com/maps/search/Domino%27s+Pizza+-+Bangor+%28Wales%29/@53.2225656,-4.1326502,17z"
Domino's Pizza - Barnsley,53.5524057,-1.4849732,"Peel Street, S70 2RJ Barnsley, United Kingdom",Fast Food,CERTIFICADOS / CERTIFIED,GF Social Internacional,GF Social Internacional,,,,,"https://www.google.com/maps/search/Domino%27s+Pizza+-+Barnsley/@53.5524057,-1.4849732,17z"
Domino's Pizza - Barnstaple,51.07773049999999,-4.064249100000001,"Taw Wharf, EX31 2FA North Devon, United Kingdom",Fast Food,CERTIFICADOS / CERTIFIED,GF Social Internacional,GF Social Internacional,,,,,"https://www.google.com/maps/search/Domino%27s+Pizza+-+Barnstaple/@51.07773049999999,-4.064249100000001,17z"
Domino's Pizza - Barrow-in-Furness - Walney Road,54.1235114,-3.239065199999999,"Walney Road, LA14 5UG Barrow-in-Furness, United Kingdom",Fast Food,CERTIFICADOS / CERTIFIED,GF Social Internacional,GF Social Internacional,,,,,"https://www.google.com/maps/search/Domino%27s+Pizza+-+Barrow-in-Furness+-+Walney+Road/@54.1235114,-3.239065199999999,17z"
Domino's Pizza Dulce,54.11182579999999,-3.2007786,"Roose Road 182, LA13 0EE Barrow-in-Furness, United Kingdom",Fast Food,CERTIFICADOS / CERTIFIED,GF Social Internacional,GF Social Internacional,,,,,"https://www.google.com/maps/search/Domino%27s+Pizza+Dulce/@54.11182579999999,-3.2007786,17z"
Domino's Pizza - Barry,51.40447940000001,-3.2714695,"Holton Road 15-17, CF63 4HA Barry, United Kingdom",Fast Food,CERTIFICADOS / CERTIFIED,GF Social Internacional,GF Social Internacional,,,,,"https://www.google.com/maps/search/Domino%27s+Pizza+-+Barry/@51.40447940000001,-3.2714695,17z"
Domino's Pizza - Basildon,51.56910329999999,0.460498,"Eastgate Shopping Centre, SS14 1AE Basildon, United Kingdom",Fast Food,CERTIFICADOS / CERTIFIED,GF Social Internacional,GF Social Internacional,,,,,"https://www.google.com/maps/search/Domino%27s+Pizza+-+Basildon/@51.56910329999999,0.460498,17z"
Domino's Pizza - Basildon - Laindon,51.5616919,0.42082620000000004,"The Triangle, SS16 6HG Basildon, United Kingdom",Fast Food,CERTIFICADOS / CERTIFIED,GF Social Internacional,GF Social Internacional,,,,,"https://www.google.com/maps/search/Domino%27s+Pizza+-+Basildon+-+Laindon/@51.5616919,0.42082620000000004,17z"
Domino's Pizza - Basildon - Pitsea,51.5642245,0.5042485999999999,"Station Lane 26, SS13 3BG Basildon, United Kingdom",Fast Food,CERTIFICADOS / CERTIFIED,GF Social Internacional,GF Social Internacional,,,,,"https://www.google.com/maps/search/Domino%27s+Pizza+-+Basildon+-+Pitsea/@51.5642245,0.5042485999999999,17z"
Domino's Pizza - Basingstoke - Brighton Hill,51.24507129999999,-1.1141853,"Brighton Hill 8, RG22 4EH Basingstoke and Deane, United Kingdom",Fast Food,CERTIFICADOS / CERTIFIED,GF Social Internacional,GF Social Internacional,,,,,"https://www.google.com/maps/search/Domino%27s+Pizza+-+Basingstoke+-+Brighton+Hill/@51.24507129999999,-1.1141853,17z"
Domino's Pizza - Basingstoke - Chineham,51.2835179,-1.0597162,"Chineham Shopping Centre, RG24 8BQ Basingstoke and Deane, United Kingdom",Fast Food,CERTIFICADOS / CERTIFIED,GF Social Internacional,GF Social Internacional,,,,,"https://www.google.com/maps/search/Domino%27s+Pizza+-+Basingstoke+-+Chineham/@51.2835179,-1.0597162,17z"
Domino's Pizza - Basingstoke - Town Centre,51.2622633,-1.0901757,"Winton Square 6, RG21 8EW Basingstoke and Deane, United Kingdom",Fast Food,CERTIFICADOS / CERTIFIED,GF Social Internacional,GF Social Internacional,,,,,"https://www.google.com/maps/search/Domino%27s+Pizza+-+Basingstoke+-+Town+Centre/@51.2622633,-1.0901757,17z"
Domino's Pizza - Bath - London Road,51.390967,-2.3550907,"London Road, BA1 5NL Bath, United Kingdom",Fast Food,CERTIFICADOS / CERTIFIED,GF Social Internacional,GF Social Internacional,,,,,"https://www.google.com/maps/search/Domino%27s+Pizza+-+Bath+-+London+Road/@51.390967,-2.3550907,17z"
Domino's Pizza - Bath - Oldfield Park,51.3770125,-2.378278,"Moorland Road 40, BA2 3PN Bath, United Kingdom",Fast Food,CERTIFICADOS / CERTIFIED,GF Social Internacional,GF Social Internacional,,,,,"https://www.google.com/maps/search/Domino%27s+Pizza+-+Bath+-+Oldfield+Park/@51.3770125,-2.378278,17z"
Domino's Pizza - Bathgate,55.90212260000001,-3.6430555000000004,"North Bridge Street 23, EH48 4PJ Bathgate, United Kingdom",Fast Food,CERTIFICADOS / CERTIFIED,GF Social Internacional,GF Social Internacional,,,,,"https://www.google.com/maps/search/Domino%27s+Pizza+-+Bathgate/@55.90212260000001,-3.6430555000000004,17z"
Domino's Pizza - Beccles,52.4562281,1.5651551,"Blyburgate 23, NR34 9TB East Suffolk, United Kingdom",Fast Food,CERTIFICADOS / CERTIFIED,GF Social Internacional,GF Social Internacional,,,,,"https://www.google.com/maps/search/Domino%27s+Pizza+-+Beccles/@52.4562281,1.5651551,17z"
Domino's Pizza - Bedford - Central,52.1357419,-0.47302230000000006,"Midland Road 70, MK40 1QH Bedford, United Kingdom",Fast Food,CERTIFICADOS / CERTIFIED,GF Social Internacional,GF Social Internacional,,,,,"https://www.google.com/maps/search/Domino%27s+Pizza+-+Bedford+-+Central/@52.1357419,-0.47302230000000006,17z"
Domino's Pizza - Bedford - Elms Parc,52.1451393,-0.4210272,"A4280, MK41 0DX Bedford, United Kingdom",Fast Food,CERTIFICADOS / CERTIFIED,GF Social Internacional,GF Social Internacional,,,,,"https://www.google.com/maps/search/Domino%27s+Pizza+-+Bedford+-+Elms+Parc/@52.1451393,-0.4210272,17z"
Domino's Pizza - Bedford - Kempston,52.1178397,-0.4949311999999999,"Bedford Road 232, MK42 8PP Kempston, United Kingdom",Fast Food,CERTIFICADOS / CERTIFIED,GF Social Internacional,GF Social Internacional,,,,,"https://www.google.com/maps/search/Domino%27s+Pizza+-+Bedford+-+Kempston/@52.1178397,-0.4949311999999999,17z"
Domino's Pizza - Bedworth,52.4797275,-1.4724732,"All Saints Square, CV12 8LU Nuneaton and Bedworth, United Kingdom",Fast Food,CERTIFICADOS / CERTIFIED,GF Social Internacional,GF Social Internacional,,,,,"https://www.google.com/maps/search/Domino%27s+Pizza+-+Bedworth/@52.4797275,-1.4724732,17z"
Domino's Pizza - Belfast - East,54.5780696,-5.872641599999999,"Knock Road 224, BT5 6QD Bangor, United Kingdom",Fast Food,CERTIFICADOS / CERTIFIED,GF Social Internacional,GF Social Internacional,,,,,"https://www.google.com/maps/search/Domino%27s+Pizza+-+Belfast+-+East/@54.5780696,-5.872641599999999,17z"
Domino's Pizza - Eastpoint Entertainment Village,54.5894122,-5.821327599999999,"Comber Greenway, BT16 1DF Dundonald, United Kingdom",Fast Food,CERTIFICADOS / CERTIFIED,GF Social Internacional,GF Social Internacional,,,,,"https://www.google.com/maps/search/Domino%27s+Pizza+-+Eastpoint+Entertainment+Village/@54.5894122,-5.821327599999999,17z"
Domino's Pizza - Belfast - North,54.61601770000001,-5.937207900000001,"Antrim Road, BT15 2HN County Borough of Belfast, United Kingdom",Fast Food,CERTIFICADOS / CERTIFIED,GF Social Internacional,GF Social Internacional,,,,,"https://www.google.com/maps/search/Domino%27s+Pizza+-+Belfast+-+North/@54.61601770000001,-5.937207900000001,17z"
Domino's Pizza - Belfast - Saintfield Road,54.5576129,-5.9090979,"Saintfield Road 174, BT8 7HL Purdysburn, United Kingdom",Fast Food,CERTIFICADOS / CERTIFIED,GF Social Internacional,GF Social Internacional,,,,,"https://www.google.com/maps/search/Domino%27s+Pizza+-+Belfast+-+Saintfield+Road/@54.5576129,-5.9090979,17z"
Domino's Pizza - Belfast - South,54.5877795,-5.936560599999999,"Lisburn Road 2-14, BT9 6AA County Borough of Belfast, United Kingdom",Fast Food,CERTIFICADOS / CERTIFIED,GF Social Internacional,GF Social Internacional,,,,,"https://www.google.com/maps/search/Domino%27s+Pizza+-+Belfast+-+South/@54.5877795,-5.936560599999999,17z"
Domino's Pizza - Belfast - West,54.57571089999999,-5.977676599999999,"Kennedy Way, BT11 9AP Belfast, United Kingdom",Fast Food,CERTIFICADOS / CERTIFIED,GF Social Internacional,GF Social Internacional,,,,,"https://www.google.com/maps/search/Domino%27s+Pizza+-+Belfast+-+West/@54.57571089999999,-5.977676599999999,17z"
Domino's Pizza - Benfleet,51.56720450000001,0.5518799,"London Road, SS7 5UH Castle Point, United Kingdom",Fast Food,CERTIFICADOS / CERTIFIED,GF Social Internacional,GF Social Internacional,,,,,"https://www.google.com/maps/search/Domino%27s+Pizza+-+Benfleet/@51.56720450000001,0.5518799,17z"
Domino's Pizza - Berkhamsted,51.7629033,-0.5716007000000001,"High Street 346, HP4 1HT Dacorum, United Kingdom",Fast Food,CERTIFICADOS / CERTIFIED,GF Social Internacional,GF Social Internacional,,,,,"https://www.google.com/maps/search/Domino%27s+Pizza+-+Berkhamsted/@51.7629033,-0.5716007000000001,17z"
Domino's Pizza - Beverley,53.8451617,-0.4315073,"Manor Road, HU17 7GD Beverley, United Kingdom",Fast Food,CERTIFICADOS / CERTIFIED,GF Social Internacional,GF Social Internacional,,,,,"https://www.google.com/maps/search/Domino%27s+Pizza+-+Beverley/@53.8451617,-0.4315073,17z"
Domino's Pizza - Bexhill on Sea,50.8403191,0.4769997,"Sea Road 18, TN40 1ED Rother, United Kingdom",Fast Food,CERTIFICADOS / CERTIFIED,GF Social Internacional,GF Social Internacional,,,,,"https://www.google.com/maps/search/Domino%27s+Pizza+-+Bexhill+on+Sea/@50.8403191,0.4769997,17z"
Domino's Pizza - Bicester,51.90658639999999,-1.1500374,"Buckingham Crescent 132, OX26 4HB Cherwell, United Kingdom",Fast Food,CERTIFICADOS / CERTIFIED,GF Social Internacional,GF Social Internacional,,,,,"https://www.google.com/maps/search/Domino%27s+Pizza+-+Bicester/@51.90658639999999,-1.1500374,17z"
Domino's Pizza - Bicester - Kingsmere,51.8934051,-1.1693943000000002,"Whitelands Way, OX26 1EG Cherwell, United Kingdom",Fast Food,CERTIFICADOS / CERTIFIED,GF Social Internacional,GF Social Internacional,,,,,"https://www.google.com/maps/search/Domino%27s+Pizza+-+Bicester+-+Kingsmere/@51.8934051,-1.1693943000000002,17z"
Domino's Pizza - Bideford,51.00959099999999,-4.239301499999999,"Clovelly Road, EX39 3FR Torridge, United Kingdom",Fast Food,CERTIFICADOS / CERTIFIED,GF Social Internacional,GF Social Internacional,,,,,"https://www.google.com/maps/search/Domino%27s+Pizza+-+Bideford/@51.00959099999999,-4.239301499999999,17z"
Domino's Pizza - Biggin Hill,51.308983,0.037361,"Main Road 172, TN16 3BB Greater London, United Kingdom",Fast Food,CERTIFICADOS / CERTIFIED,GF Social Internacional,GF Social Internacional,,,,,"https://www.google.com/maps/search/Domino%27s+Pizza+-+Biggin+Hill/@51.308983,0.037361,17z"
Domino's Pizza - Biggleswade,52.0871326,-0.2601722,"High Street 97, SG18 0LA Biggleswade, United Kingdom",Fast Food,CERTIFICADOS / CERTIFIED,GF Social Internacional,GF Social Internacional,,,,,"https://www.google.com/maps/search/Domino%27s+Pizza+-+Biggleswade/@52.0871326,-0.2601722,17z"
Domino's Pizza - Billericay,51.627971800000005,0.4190368,"High Street 1, CM12 9BG Basildon, United Kingdom",Fast Food,CERTIFICADOS / CERTIFIED,GF Social Internacional,GF Social Internacional,,,,,"https://www.google.com/maps/search/Domino%27s+Pizza+-+Billericay/@51.627971800000005,0.4190368,17z"
Domino's Pizza - Bingham,52.95209020000001,-0.9505682,"Church Street, NG13 8AL City of Nottingham, United Kingdom",Fast Food,CERTIFICADOS / CERTIFIED,GF Social Internacional,GF Social Internacional,,,,,"https://www.google.com/maps/search/Domino%27s+Pizza+-+Bingham/@52.95209020000001,-0.9505682,17z"
Domino's Pizza - Bingley,53.84866539999999,-1.8382990999999997,"Main Street 95, BD16 2HT Bradford, United Kingdom",Fast Food,CERTIFICADOS / CERTIFIED,GF Social Internacional,GF Social Internacional,,,,,"https://www.google.com/maps/search/Domino%27s+Pizza+-+Bingley/@53.84866539999999,-1.8382990999999997,17z"
Domino's Pizza - Birchington,51.3745008,1.3062451,"Station Road 11, CT7 9DJ Thanet, United Kingdom",Fast Food,CERTIFICADOS / CERTIFIED,GF Social Internacional,GF Social Internacional,,,,,"https://www.google.com/maps/search/Domino%27s+Pizza+-+Birchington/@51.3745008,1.3062451,17z"
Domino's Pizza - Birkenhead,53.3909189,-3.027993899999999,"Claughton Road, CH41 6EY Birkenhead, United Kingdom",Fast Food,CERTIFICADOS / CERTIFIED,GF Social Internacional,GF Social Internacional,,,,,"https://www.google.com/maps/search/Domino%27s+Pizza+-+Birkenhead/@53.3909189,-3.027993899999999,17z"
Domino's Pizza - Birmingham - Castle Bromwich,52.5010087,-1.7714757,"Timberley Lane 32, B34 7EH Birmingham, United Kingdom",Fast Food,CERTIFICADOS / CERTIFIED,GF Social Internacional,GF Social Internacional,,,,,"https://www.google.com/maps/search/Domino%27s+Pizza+-+Birmingham+-+Castle+Bromwich/@52.5010087,-1.7714757,17z"
Domino's Pizza - Birmingham - Central,52.4878239,-1.9053892,"Northwood Street, B19 3JS Birmingham, United Kingdom",Fast Food,CERTIFICADOS / CERTIFIED,GF Social Internacional,GF Social Internacional,,,,,"https://www.google.com/maps/search/Domino%27s+Pizza+-+Birmingham+-+Central/@52.4878239,-1.9053892,17z"
Domino's Pizza - Birmingham - Edgbaston,52.4735591,-1.921622,"Ladywood Middleway 220, B16 8LP Birmingham, United Kingdom",Fast Food,CERTIFICADOS / CERTIFIED,GF Social Internacional,GF Social Internacional,,,,,"https://www.google.com/maps/search/Domino%27s+Pizza+-+Birmingham+-+Edgbaston/@52.4735591,-1.921622,17z"
Domino's Pizza - Birmingham - Great Barr,52.54521099999999,-1.9334880000000003,"Walsall Road, B42 1TQ Birmingham, United Kingdom",Fast Food,CERTIFICADOS / CERTIFIED,GF Social Internacional,GF Social Internacional,,,,,"https://www.google.com/maps/search/Domino%27s+Pizza+-+Birmingham+-+Great+Barr/@52.54521099999999,-1.9334880000000003,17z"
Domino's Pizza - Birmingham - Hall Green,52.4383584,-1.8472771,"Stratford Road, B28 8AE Birmingham, United Kingdom",Fast Food,CERTIFICADOS / CERTIFIED,GF Social Internacional,GF Social Internacional,,,,,"https://www.google.com/maps/search/Domino%27s+Pizza+-+Birmingham+-+Hall+Green/@52.4383584,-1.8472771,17z"
Domino's Pizza - Birmingham - Kings Norton,52.415946,-1.9296715,"Pershore Road, B30 3DJ Birmingham, United Kingdom",Fast Food,CERTIFICADOS / CERTIFIED,GF Social Internacional,GF Social Internacional,,,,,"https://www.google.com/maps/search/Domino%27s+Pizza+-+Birmingham+-+Kings+Norton/@52.415946,-1.9296715,17z"
Domino's Pizza - Birmingham - Kingstanding,52.55301919999999,-1.8856141000000002,"Kings Road, B44 9HH Birmingham, United Kingdom",Fast Food,CERTIFICADOS / CERTIFIED,GF Social Internacional,GF Social Internacional,,,,,"https://www.google.com/maps/search/Domino%27s+Pizza+-+Birmingham+-+Kingstanding/@52.55301919999999,-1.8856141000000002,17z"
Domino's Pizza - Birmingham - Northfield,52.4135865,-1.9725195000000002,"Bristol Road South, B31 2PA Birmingham, United Kingdom",Fast Food,CERTIFICADOS / CERTIFIED,GF Social Internacional,GF Social Internacional,,,,,"https://www.google.com/maps/search/Domino%27s+Pizza+-+Birmingham+-+Northfield/@52.4135865,-1.9725195000000002,17z"
Domino's Pizza - Birmingham - Oldbury,52.4632957,-1.9981984,"Hagley Road West 552, B68 0BS Sandwell, United Kingdom",Fast Food,CERTIFICADOS / CERTIFIED,GF Social Internacional,GF Social Internacional,,,,,"https://www.google.com/maps/search/Domino%27s+Pizza+-+Birmingham+-+Oldbury/@52.4632957,-1.9981984,17z"
Domino's Pizza - Birmingham - Rubery,52.3938238,-2.0164301,"New Road 198, B45 9JA Birmingham, United Kingdom",Fast Food,CERTIFICADOS / CERTIFIED,GF Social Internacional,GF Social Internacional,,,,,"https://www.google.com/maps/search/Domino%27s+Pizza+-+Birmingham+-+Rubery/@52.3938238,-2.0164301,17z"
Domino's Pizza - Birmingham - Selly Oak,52.44577270000002,-1.9327258,"Bristol Road, B29 6AP Birmingham, United Kingdom",Fast Food,CERTIFICADOS / CERTIFIED,GF Social Internacional,GF Social Internacional,,,,,"https://www.google.com/maps/search/Domino%27s+Pizza+-+Birmingham+-+Selly+Oak/@52.44577270000002,-1.9327258,17z"
Domino's Pizza - Birmingham - Sheldon,52.4432005,-1.7848619,"Hobs Moat Road, B92 8JL Solihull, United Kingdom",Fast Food,CERTIFICADOS / CERTIFIED,GF Social Internacional,GF Social Internacional,,,,,"https://www.google.com/maps/search/Domino%27s+Pizza+-+Birmingham+-+Sheldon/@52.4432005,-1.7848619,17z"
Domino's Pizza - Birmingham - Shirley,52.4138222,-1.828349099999999,"Stratford Road, B90 3AX Solihull, United Kingdom",Fast Food,CERTIFICADOS / CERTIFIED,GF Social Internacional,GF Social Internacional,,,,,"https://www.google.com/maps/search/Domino%27s+Pizza+-+Birmingham+-+Shirley/@52.4138222,-1.828349099999999,17z"
Domino's Pizza - Birmingham - Smethwick,52.485995,-1.9563898,"Cape Hill 3, B66 4PH Sandwell, United Kingdom",Fast Food,CERTIFICADOS / CERTIFIED,GF Social Internacional,GF Social Internacional,,,,,"https://www.google.com/maps/search/Domino%27s+Pizza+-+Birmingham+-+Smethwick/@52.485995,-1.9563898,17z"
Domino's Pizza - Birmingham - Solihull Central,52.41457190000001,-1.7816056,"Station Road, B91 3RX Solihull, United Kingdom",Fast Food,CERTIFICADOS / CERTIFIED,GF Social Internacional,GF Social Internacional,,,,,"https://www.google.com/maps/search/Domino%27s+Pizza+-+Birmingham+-+Solihull+Central/@52.41457190000001,-1.7816056,17z"
Domino's Pizza - Birmingham - Star City,52.50539939999999,-1.8566095,"Watson Road, B7 5SA Birmingham, United Kingdom",Fast Food,CERTIFICADOS / CERTIFIED,GF Social Internacional,GF Social Internacional,,,,,"https://www.google.com/maps/search/Domino%27s+Pizza+-+Birmingham+-+Star+City/@52.50539939999999,-1.8566095,17z"
Domino's Pizza - Birmingham - Yardley,52.46662679999999,-1.8095360999999992,"Church Road 110-112a, B25 8UX Birmingham, United Kingdom",Fast Food,CERTIFICADOS / CERTIFIED,GF Social Internacional,GF Social Internacional,,,,,"https://www.google.com/maps/search/Domino%27s+Pizza+-+Birmingham+-+Yardley/@52.46662679999999,-1.8095360999999992,17z"
Domino's Pizza - Bishop Auckland,54.64019590000001,-1.6935002,"Maude Terrace, DL14 9TT Bishop Auckland, United Kingdom",Fast Food,CERTIFICADOS / CERTIFIED,GF Social Internacional,GF Social Internacional,,,,,"https://www.google.com/maps/search/Domino%27s+Pizza+-+Bishop+Auckland/@54.64019590000001,-1.6935002,17z"
Domino's Pizza - Bishop's Stortford,51.873284,0.1589701,"Northgate End 11, CM23 2ET East Hertfordshire, United Kingdom",Fast Food,CERTIFICADOS / CERTIFIED,GF Social Internacional,GF Social Internacional,,,,,"https://www.google.com/maps/search/Domino%27s+Pizza+-+Bishop%27s+Stortford/@51.873284,0.1589701,17z"
Domino's Pizza - Blackburn,53.73572430000001,-2.4871643,"Infirmary Road, BB2 3RR Blackburn, United Kingdom",Fast Food,CERTIFICADOS / CERTIFIED,GF Social Internacional,GF Social Internacional,,,,,"https://www.google.com/maps/search/Domino%27s+Pizza+-+Blackburn/@53.73572430000001,-2.4871643,17z"
Domino's Pizza - Blackpool - Central,53.8152393,-3.0366213,"Whitegate Drive 67, FY3 9DA Blackpool, United Kingdom",Fast Food,CERTIFICADOS / CERTIFIED,GF Social Internacional,GF Social Internacional,,,,,"https://www.google.com/maps/search/Domino%27s+Pizza+-+Blackpool+-+Central/@53.8152393,-3.0366213,17z"
Domino's Pizza - Blackpool - North Shore,53.832712,-3.0406556,"Devonshire Road 279, FY2 0TN Blackpool, United Kingdom",Fast Food,CERTIFICADOS / CERTIFIED,GF Social Internacional,GF Social Internacional,,,,,"https://www.google.com/maps/search/Domino%27s+Pizza+-+Blackpool+-+North+Shore/@53.832712,-3.0406556,17z"
Domino's Pizza - Blackpool - South Shore,53.80250660000001,-3.0279471,"Waterloo Road 483, FY4 4BW Blackpool, United Kingdom",Fast Food,CERTIFICADOS / CERTIFIED,GF Social Internacional,GF Social Internacional,,,,,"https://www.google.com/maps/search/Domino%27s+Pizza+-+Blackpool+-+South+Shore/@53.80250660000001,-3.0279471,17z"
Domino's Pizza - Blackpool - Squires Gate,53.77968689999999,-3.040036,"Abbey Road 141, FY4 2PY Blackpool, United Kingdom",Fast Food,CERTIFICADOS / CERTIFIED,GF Social Internacional,GF Social Internacional,,,,,"https://www.google.com/maps/search/Domino%27s+Pizza+-+Blackpool+-+Squires+Gate/@53.77968689999999,-3.040036,17z"
Domino's Pizza - Blackwood,51.67097049999999,-3.1949298,"NP12 2BN Blackwood, United Kingdom",Fast Food,CERTIFICADOS / CERTIFIED,GF Social Internacional,GF Social Internacional,,,,,"https://www.google.com/maps/search/Domino%27s+Pizza+-+Blackwood/@51.67097049999999,-3.1949298,17z"
Domino's Pizza - Blandford Forum,50.85617370000001,-2.1628675,"East Street 48, DT11 7DR Blandford Forum, United Kingdom",Fast Food,CERTIFICADOS / CERTIFIED,GF Social Internacional,GF Social Internacional,,,,,"https://www.google.com/maps/search/Domino%27s+Pizza+-+Blandford+Forum/@50.85617370000001,-2.1628675,17z"
Domino's Pizza - Blaydon,54.9647678,-1.7130214,"Shibdon Road, NE21 5PU Gateshead, United Kingdom",Fast Food,CERTIFICADOS / CERTIFIED,GF Social Internacional,GF Social Internacional,,,,,"https://www.google.com/maps/search/Domino%27s+Pizza+-+Blaydon/@54.9647678,-1.7130214,17z"
Domino's Pizza - Blyth,55.1267175,-1.511096,"Waterloo Road 40, NE24 1DH Newsham, United Kingdom",Fast Food,CERTIFICADOS / CERTIFIED,GF Social Internacional,GF Social Internacional,,,,,"https://www.google.com/maps/search/Domino%27s+Pizza+-+Blyth/@55.1267175,-1.511096,17z"
Domino's Pizza - Bodmin,50.4725219,-4.7209474,"Dennison Road, PL31 2LL Bodmin, United Kingdom",Fast Food,CERTIFICADOS / CERTIFIED,GF Social Internacional,GF Social Internacional,,,,,"https://www.google.com/maps/search/Domino%27s+Pizza+-+Bodmin/@50.4725219,-4.7209474,17z"
Domino's Pizza - Bognor Regis,50.7858826,-0.6758563,"Station Road, PO21 1QE Arun, United Kingdom",Fast Food,CERTIFICADOS / CERTIFIED,GF Social Internacional,GF Social Internacional,,,,,"https://www.google.com/maps/search/Domino%27s+Pizza+-+Bognor+Regis/@50.7858826,-0.6758563,17z"
Domino's Pizza - Bolton - Central,53.5733401,-2.434189,"Derby Street 33, BL3 6HE Bolton, United Kingdom",Fast Food,CERTIFICADOS / CERTIFIED,GF Social Internacional,GF Social Internacional,,,,,"https://www.google.com/maps/search/Domino%27s+Pizza+-+Bolton+-+Central/@53.5733401,-2.434189,17z"
Domino's Pizza - Bolton - North,53.6019283,-2.4324366,"Blackburn Road 590-592, BL1 7AL Bolton, United Kingdom",Fast Food,CERTIFICADOS / CERTIFIED,GF Social Internacional,GF Social Internacional,,,,,"https://www.google.com/maps/search/Domino%27s+Pizza+-+Bolton+-+North/@53.6019283,-2.4324366,17z"
Domino's Pizza - Bolton - Westhoughton,53.54759600000001,-2.526475,"Cricketers Way, BL5 3RD Bolton, United Kingdom",Fast Food,CERTIFICADOS / CERTIFIED,GF Social Internacional,GF Social Internacional,,,,,"https://www.google.com/maps/search/Domino%27s+Pizza+-+Bolton+-+Westhoughton/@53.54759600000001,-2.526475,17z"
Domino's Pizza - Bonnybridge,56.001921700000004,-3.8898588,"High Street 24, FK4 1DA Bonnybridge, United Kingdom",Fast Food,CERTIFICADOS / CERTIFIED,GF Social Internacional,GF Social Internacional,,,,,"https://www.google.com/maps/search/Domino%27s+Pizza+-+Bonnybridge/@56.001921700000004,-3.8898588,17z"
Domino's Pizza - Bordon,51.1116571,-0.8629135,"Chalet Hill, GU35 0TQ East Hampshire, United Kingdom",Fast Food,CERTIFICADOS / CERTIFIED,GF Social Internacional,GF Social Internacional,,,,,"https://www.google.com/maps/search/Domino%27s+Pizza+-+Bordon/@51.1116571,-0.8629135,17z"
Domino's Pizza - Borehamwood,51.65784120000001,-0.2719606000000001,"Shenley Road 203, WD6 1AT Hertsmere, United Kingdom",Fast Food,CERTIFICADOS / CERTIFIED,GF Social Internacional,GF Social Internacional,,,,,"https://www.google.com/maps/search/Domino%27s+Pizza+-+Borehamwood/@51.65784120000001,-0.2719606000000001,17z"
Domino's Pizza - Borough Green,51.292748,0.3027712999999999,"Western Road, TN15 8AG Tonbridge and Malling, United Kingdom",Fast Food,CERTIFICADOS / CERTIFIED,GF Social Internacional,GF Social Internacional,,,,,"https://www.google.com/maps/search/Domino%27s+Pizza+-+Borough+Green/@51.292748,0.3027712999999999,17z"
Domino's Pizza - Boston,52.9715521,-0.01831890000000001,"Skirbeck Road, PE21 6DH Boston, United Kingdom",Fast Food,CERTIFICADOS / CERTIFIED,GF Social Internacional,GF Social Internacional,,,,,"https://www.google.com/maps/search/Domino%27s+Pizza+-+Boston/@52.9715521,-0.01831890000000001,17z"
Domino's Pizza - Bournemouth - Lansdowne,50.7224841,-1.8655589000000001,"Holdenhurst Road 6, BH8 8AD Bournemouth, United Kingdom",Fast Food,CERTIFICADOS / CERTIFIED,GF Social Internacional,GF Social Internacional,,,,,"https://www.google.com/maps/search/Domino%27s+Pizza+-+Bournemouth+-+Lansdowne/@50.7224841,-1.8655589000000001,17z"
Domino's Pizza - Bournemouth - Kinson,50.76893179999999,-1.9029828,"Wimborne Road 1498, BH11 9AD Kinson, United Kingdom",Fast Food,CERTIFICADOS / CERTIFIED,GF Social Internacional,GF Social Internacional,,,,,"https://www.google.com/maps/search/Domino%27s+Pizza+-+Bournemouth+-+Kinson/@50.76893179999999,-1.9029828,17z"
Domino's Pizza - Bournemouth - Winton,50.744841,-1.8785796999999997,"Wimborne Road 532, BH9 2EX Bournemouth, United Kingdom",Fast Food,CERTIFICADOS / CERTIFIED,GF Social Internacional,GF Social Internacional,,,,,"https://www.google.com/maps/search/Domino%27s+Pizza+-+Bournemouth+-+Winton/@50.744841,-1.8785796999999997,17z"
Domino's Pizza - Brackley,52.02947649999999,-1.1469029,"High Street 22, NN13 7DS Brackley, United Kingdom",Fast Food,CERTIFICADOS / CERTIFIED,GF Social Internacional,GF Social Internacional,,,,,"https://www.google.com/maps/search/Domino%27s+Pizza+-+Brackley/@52.02947649999999,-1.1469029,17z"
Domino's Pizza - Bracknell,51.41656830000001,-0.7482331,"High Street 22, RG12 1LL Bracknell, United Kingdom",Fast Food,CERTIFICADOS / CERTIFIED,GF Social Internacional,GF Social Internacional,,,,,"https://www.google.com/maps/search/Domino%27s+Pizza+-+Bracknell/@51.41656830000001,-0.7482331,17z"
Domino's Pizza - Bradford - Buttershaw,53.7684226,-1.7630217,"Manchester Road 1060a, BD5 8NN Bradford, United Kingdom",Fast Food,CERTIFICADOS / CERTIFIED,GF Social Internacional,GF Social Internacional,,,,,"https://www.google.com/maps/search/Domino%27s+Pizza+-+Bradford+-+Buttershaw/@53.7684226,-1.7630217,17z"
Domino's Pizza - Bradford - Eccleshill,53.8167905,-1.7348404000000002,"Bolton Road 1107, BD2 4ST Bradford, United Kingdom",Fast Food,CERTIFICADOS / CERTIFIED,GF Social Internacional,GF Social Internacional,,,,,"https://www.google.com/maps/search/Domino%27s+Pizza+-+Bradford+-+Eccleshill/@53.8167905,-1.7348404000000002,17z"
Domino's Pizza - Bradford - Lidget Green,53.7973891,-1.7839639,"Ingleby Road 45, BD8 9AH Bradford, United Kingdom",Fast Food,CERTIFICADOS / CERTIFIED,GF Social Internacional,GF Social Internacional,,,,,"https://www.google.com/maps/search/Domino%27s+Pizza+-+Bradford+-+Lidget+Green/@53.7973891,-1.7839639,17z"
Domino's Pizza - Bradford-on-Avon,51.336755,-2.2520675,"Rowden Lane, BA15 2AZ Bradford-on-Avon, United Kingdom",Fast Food,CERTIFICADOS / CERTIFIED,GF Social Internacional,GF Social Internacional,,,,,"https://www.google.com/maps/search/Domino%27s+Pizza+-+Bradford-on-Avon/@51.336755,-2.2520675,17z"
Domino's Pizza - Braintree,51.88043239999999,0.5628565999999999,"Coggeshall Road, CM7 9EW Braintree, United Kingdom",Fast Food,CERTIFICADOS / CERTIFIED,GF Social Internacional,GF Social Internacional,,,,,"https://www.google.com/maps/search/Domino%27s+Pizza+-+Braintree/@51.88043239999999,0.5628565999999999,17z"
Domino's Pizza - Brentwood,51.6197938,0.2992284,"High Street 115, CM14 4RX Brentwood, United Kingdom",Fast Food,CERTIFICADOS / CERTIFIED,GF Social Internacional,GF Social Internacional,,,,,"https://www.google.com/maps/search/Domino%27s+Pizza+-+Brentwood/@51.6197938,0.2992284,17z"
Domino's Pizza - Bridgend - Parc Plaza,51.4940447,-3.5587816,"Bryn Crac, CF31 3YY Bridgend, United Kingdom",Fast Food,CERTIFICADOS / CERTIFIED,GF Social Internacional,GF Social Internacional,,,,,"https://www.google.com/maps/search/Domino%27s+Pizza+-+Bridgend+-+Parc+Plaza/@51.4940447,-3.5587816,17z"
Domino's Pizza - Bridgend - Tremains Road,51.5040622,-3.5704793,"Tremains Road 33, CF31 1TZ Bridgend, United Kingdom",Fast Food,CERTIFICADOS / CERTIFIED,GF Social Internacional,GF Social Internacional,,,,,"https://www.google.com/maps/search/Domino%27s+Pizza+-+Bridgend+-+Tremains+Road/@51.5040622,-3.5704793,17z"
Domino's Pizza - Bridgwater,51.12920690000001,-2.9986602,"Eastover 45-46, TA6 5AW Bridgwater, United Kingdom",Fast Food,CERTIFICADOS / CERTIFIED,GF Social Internacional,GF Social Internacional,,,,,"https://www.google.com/maps/search/Domino%27s+Pizza+-+Bridgwater/@51.12920690000001,-2.9986602,17z"
Domino's Pizza - Bridlington,54.0828337,-0.1892188,"Promenade 19, YO15 2PY Bridlington, United Kingdom",Fast Food,CERTIFICADOS / CERTIFIED,GF Social Internacional,GF Social Internacional,,,,,"https://www.google.com/maps/search/Domino%27s+Pizza+-+Bridlington/@54.0828337,-0.1892188,17z"
Domino's Pizza - Bridport,50.733558,-2.7621441,"Tannery Road 5, DT6 3TP Bridport, United Kingdom",Fast Food,CERTIFICADOS / CERTIFIED,GF Social Internacional,GF Social Internacional,,,,,"https://www.google.com/maps/search/Domino%27s+Pizza+-+Bridport/@50.733558,-2.7621441,17z"
Domino's Pizza - Brighouse,53.70231150000001,-1.7812304,"Commercial Street 76, HD6 1AQ Calderdale, United Kingdom",Fast Food,CERTIFICADOS / CERTIFIED,GF Social Internacional,GF Social Internacional,,,,,"https://www.google.com/maps/search/Domino%27s+Pizza+-+Brighouse/@53.70231150000001,-1.7812304,17z"
Domino's Pizza - Brighton - London Road,50.83251610000001,-0.1378959,"London Road 56, BN1 4JE Brighton, United Kingdom",Fast Food,CERTIFICADOS / CERTIFIED,GF Social Internacional,GF Social Internacional,,,,,"https://www.google.com/maps/search/Domino%27s+Pizza+-+Brighton+-+London+Road/@50.83251610000001,-0.1378959,17z"
Domino's Pizza - Brighton - Moulsecoomb,50.8522621,-0.1040312,"Moulsecoomb Way 77, 79, BN2 4PB Brighton, United Kingdom",Fast Food,CERTIFICADOS / CERTIFIED,GF Social Internacional,GF Social Internacional,,,,,"https://www.google.com/maps/search/Domino%27s+Pizza+-+Brighton+-+Moulsecoomb/@50.8522621,-0.1040312,17z"
Domino's Pizza - Brighton - Patcham,50.86394489999999,-0.1449425,"Ladies' Mile Road 41, BN1 8TA Brighton, United Kingdom",Fast Food,CERTIFICADOS / CERTIFIED,GF Social Internacional,GF Social Internacional,,,,,"https://www.google.com/maps/search/Domino%27s+Pizza+-+Brighton+-+Patcham/@50.86394489999999,-0.1449425,17z"
Domino's Pizza - Brighton - St Georges Place,50.8278444,-0.1356468,"St. George's Place 16-17, BN1 4GB Brighton, United Kingdom",Fast Food,CERTIFICADOS / CERTIFIED,GF Social Internacional,GF Social Internacional,,,,,"https://www.google.com/maps/search/Domino%27s+Pizza+-+Brighton+-+St+Georges+Place/@50.8278444,-0.1356468,17z"
Domino's Pizza - Bristol - Bedminster,51.4435198,-2.594117,"Bedminster Parade 92, BS3 4HL Bristol, United Kingdom",Fast Food,CERTIFICADOS / CERTIFIED,GF Social Internacional,GF Social Internacional,,,,,"https://www.google.com/maps/search/Domino%27s+Pizza+-+Bristol+-+Bedminster/@51.4435198,-2.594117,17z"
Domino's Pizza - Bristol - Bradley Stoke,51.5357396,-2.5499105,"Savages Wood Road, BS32 8BS Bristol, United Kingdom",Fast Food,CERTIFICADOS / CERTIFIED,GF Social Internacional,GF Social Internacional,,,,,"https://www.google.com/maps/search/Domino%27s+Pizza+-+Bristol+-+Bradley+Stoke/@51.5357396,-2.5499105,17z"
Domino's Pizza - Brislington,51.431811,-2.5465387,"West Town Lane 8, BS4 5BN Bristol, United Kingdom",Fast Food,CERTIFICADOS / CERTIFIED,GF Social Internacional,GF Social Internacional,,,,,"https://www.google.com/maps/search/Domino%27s+Pizza+-+Brislington/@51.431811,-2.5465387,17z"
Domino's Pizza - Bristol - City Centre,51.4535178,-2.595931299999999,"Baldwin Street 11, BS1 1NA Bristol, United Kingdom",Fast Food,CERTIFICADOS / CERTIFIED,GF Social Internacional,GF Social Internacional,,,,,"https://www.google.com/maps/search/Domino%27s+Pizza+-+Bristol+-+City+Centre/@51.4535178,-2.595931299999999,17z"
Domino's Pizza - Bristol - Emerson's Green,51.4925789,-2.4748322000000003,"Emerson Way, BS16 7AE Bristol, United Kingdom",Fast Food,CERTIFICADOS / CERTIFIED,GF Social Internacional,GF Social Internacional,,,,,"https://www.google.com/maps/search/Domino%27s+Pizza+-+Bristol+-+Emerson%27s+Green/@51.4925789,-2.4748322000000003,17z"
Domino's Pizza - Bristol - Filton,51.5020574,-2.5794914,"Gloucester Road North, BS7 0SH Bristol, United Kingdom",Fast Food,CERTIFICADOS / CERTIFIED,GF Social Internacional,GF Social Internacional,,,,,"https://www.google.com/maps/search/Domino%27s+Pizza+-+Bristol+-+Filton/@51.5020574,-2.5794914,17z"
Domino's Pizza - Bristol - Fishponds,51.48195579999999,-2.5263399,"Straits Parade 7-8, BS16 2LA Bristol, United Kingdom",Fast Food,CERTIFICADOS / CERTIFIED,GF Social Internacional,GF Social Internacional,,,,,"https://www.google.com/maps/search/Domino%27s+Pizza+-+Bristol+-+Fishponds/@51.48195579999999,-2.5263399,17z"
Domino's Pizza - Bristol - Gloucester Road,51.4851322,-2.5859239,"Gloucester Road 439, BS7 8TZ Bristol, United Kingdom",Fast Food,CERTIFICADOS / CERTIFIED,GF Social Internacional,GF Social Internacional,,,,,"https://www.google.com/maps/search/Domino%27s+Pizza+-+Bristol+-+Gloucester+Road/@51.4851322,-2.5859239,17z"
Domino's Pizza - Bristol - Hengrove,51.41664129999999,-2.5867571,"Hengrove Leisure Park, BS14 0HR Bristol, United Kingdom",Fast Food,CERTIFICADOS / CERTIFIED,GF Social Internacional,GF Social Internacional,,,,,"https://www.google.com/maps/search/Domino%27s+Pizza+-+Bristol+-+Hengrove/@51.41664129999999,-2.5867571,17z"
Domino's Pizza - Bristol - Keynsham,51.41365399999999,-2.482294199999999,"Ashmead Road, BS31 1SX Bristol, United Kingdom",Fast Food,CERTIFICADOS / CERTIFIED,GF Social Internacional,GF Social Internacional,,,,,"https://www.google.com/maps/search/Domino%27s+Pizza+-+Bristol+-+Keynsham/@51.41365399999999,-2.482294199999999,17z"
Domino's Pizza - Bristol - Kingswood,51.4628371,-2.5110042,"Regent Street, BS15 8JX Kingswood, United Kingdom",Fast Food,CERTIFICADOS / CERTIFIED,GF Social Internacional,GF Social Internacional,,,,,"https://www.google.com/maps/search/Domino%27s+Pizza+-+Bristol+-+Kingswood/@51.4628371,-2.5110042,17z"
Domino's Pizza - Bristol - Nailsea,51.432343700000004,-2.759348,"Crown Glass Place, BS48 1RB Nailsea, United Kingdom",Fast Food,CERTIFICADOS / CERTIFIED,GF Social Internacional,GF Social Internacional,,,,,"https://www.google.com/maps/search/Domino%27s+Pizza+-+Bristol+-+Nailsea/@51.432343700000004,-2.759348,17z"
Domino's Pizza - Portishead,51.48487120000001,-2.7687184,"High Street 26, BS20 6EN Bristol, United Kingdom",Fast Food,CERTIFICADOS / CERTIFIED,GF Social Internacional,GF Social Internacional,,,,,"https://www.google.com/maps/search/Domino%27s+Pizza+-+Portishead/@51.48487120000001,-2.7687184,17z"
Domino's Pizza - Bristol - Redfield,51.4594776,-2.5518658,"Church Road 176-180, BS5 9HX Bristol, United Kingdom",Fast Food,CERTIFICADOS / CERTIFIED,GF Social Internacional,GF Social Internacional,,,,,"https://www.google.com/maps/search/Domino%27s+Pizza+-+Bristol+-+Redfield/@51.4594776,-2.5518658,17z"
Domino's Pizza - Bristol - Stoke Bishop,51.48634209999999,-2.642006499999999,"Shirehampton Road 4, BS9 2DP Bristol, United Kingdom",Fast Food,CERTIFICADOS / CERTIFIED,GF Social Internacional,GF Social Internacional,,,,,"https://www.google.com/maps/search/Domino%27s+Pizza+-+Bristol+-+Stoke+Bishop/@51.48634209999999,-2.642006499999999,17z"
Domino's Pizza - Bristol - Whiteladies,51.4646699,-2.6093876,"Whiteladies Road 119, BS8 2PL Bristol, United Kingdom",Fast Food,CERTIFICADOS / CERTIFIED,GF Social Internacional,GF Social Internacional,,,,,"https://www.google.com/maps/search/Domino%27s+Pizza+-+Bristol+-+Whiteladies/@51.4646699,-2.6093876,17z"
Domino's Pizza - Briton Ferry,51.6352158,-3.8179929000000006,"Grandison Street, SA11 2PG Briton Ferry, United Kingdom",Fast Food,CERTIFICADOS / CERTIFIED,GF Social Internacional,GF Social Internacional,,,,,"https://www.google.com/maps/search/Domino%27s+Pizza+-+Briton+Ferry/@51.6352158,-3.8179929000000006,17z"
Domino's Pizza - Bromborough,53.31938530000001,-2.9659417000000006,"Ferry Lane, CH62 8HJ Eastham Village, United Kingdom",Fast Food,CERTIFICADOS / CERTIFIED,GF Social Internacional,GF Social Internacional,,,,,"https://www.google.com/maps/search/Domino%27s+Pizza+-+Bromborough/@53.31938530000001,-2.9659417000000006,17z"
Domino's Pizza - Bromsgrove,52.33680409999999,-2.058513099999999,"High Street 133, B61 8AE Bromsgrove, United Kingdom",Fast Food,CERTIFICADOS / CERTIFIED,GF Social Internacional,GF Social Internacional,,,,,"https://www.google.com/maps/search/Domino%27s+Pizza+-+Bromsgrove/@52.33680409999999,-2.058513099999999,17z"
Domino's Pizza - Buckshaw Village,53.6759818,-2.654245,"Lancaster Way, PR7 7LJ Chorley, United Kingdom",Fast Food,CERTIFICADOS / CERTIFIED,GF Social Internacional,GF Social Internacional,,,,,"https://www.google.com/maps/search/Domino%27s+Pizza+-+Buckshaw+Village/@53.6759818,-2.654245,17z"
Domino's Pizza - Burgess Hill,50.95485589999999,-0.1280168,"Mill Road 9, RH15 8DN Mid Sussex, United Kingdom",Fast Food,CERTIFICADOS / CERTIFIED,GF Social Internacional,GF Social Internacional,,,,,"https://www.google.com/maps/search/Domino%27s+Pizza+-+Burgess+Hill/@50.95485589999999,-0.1280168,17z"
Domino's Pizza - Burnham,51.53285,-0.658042,"High Street, SL1 7JL Burnham, United Kingdom",Fast Food,CERTIFICADOS / CERTIFIED,GF Social Internacional,GF Social Internacional,,,,,"https://www.google.com/maps/search/Domino%27s+Pizza+-+Burnham/@51.53285,-0.658042,17z"
Domino's Pizza - Burnham on Crouch,51.6268368,0.8153564999999998,"Station Road 158, CM0 8HJ Maldon, United Kingdom",Fast Food,CERTIFICADOS / CERTIFIED,GF Social Internacional,GF Social Internacional,,,,,"https://www.google.com/maps/search/Domino%27s+Pizza+-+Burnham+on+Crouch/@51.6268368,0.8153564999999998,17z"
Domino's Pizza - Burnham-On-Sea,51.23833270000001,-2.9974224,"Victoria Street 18, TA8 1AN Burnham-on-Sea, United Kingdom",Fast Food,CERTIFICADOS / CERTIFIED,GF Social Internacional,GF Social Internacional,,,,,"https://www.google.com/maps/search/Domino%27s+Pizza+-+Burnham-On-Sea/@51.23833270000001,-2.9974224,17z"
Domino's Pizza - Burnley,53.7920204,-2.2391553,"Rawcliffe Street, BB11 2DL Burnley, United Kingdom",Fast Food,CERTIFICADOS / CERTIFIED,GF Social Internacional,GF Social Internacional,,,,,"https://www.google.com/maps/search/Domino%27s+Pizza+-+Burnley/@53.7920204,-2.2391553,17z"
Domino's Pizza - Burntwood,52.681293100000005,-1.9341313000000002,"High Street, WS7 3XJ Lichfield, United Kingdom",Fast Food,CERTIFICADOS / CERTIFIED,GF Social Internacional,GF Social Internacional,,,,,"https://www.google.com/maps/search/Domino%27s+Pizza+-+Burntwood/@52.681293100000005,-1.9341313000000002,17z"
Domino's Pizza - Burton Latimer,52.3640912,-0.6793576000000001,"Churchill Way 18, NN15 5RU Kettering, United Kingdom",Fast Food,CERTIFICADOS / CERTIFIED,GF Social Internacional,GF Social Internacional,,,,,"https://www.google.com/maps/search/Domino%27s+Pizza+-+Burton+Latimer/@52.3640912,-0.6793576000000001,17z"
Domino's Pizza - Burton-Upon-Trent - Horninglow,52.82163329999999,-1.6416198,"Horninglow Road North 51-52, DE13 0SW East Staffordshire, United Kingdom",Fast Food,CERTIFICADOS / CERTIFIED,GF Social Internacional,GF Social Internacional,,,,,"https://www.google.com/maps/search/Domino%27s+Pizza+-+Burton-Upon-Trent+-+Horninglow/@52.82163329999999,-1.6416198,17z"
Domino's Pizza - Burton-Upon-Trent,52.8035561,-1.6321302,"Station Street 184-185, DE14 1BH East Staffordshire, United Kingdom",Fast Food,CERTIFICADOS / CERTIFIED,GF Social Internacional,GF Social Internacional,,,,,"https://www.google.com/maps/search/Domino%27s+Pizza+-+Burton-Upon-Trent/@52.8035561,-1.6321302,17z"
Domino's Pizza - Bury,53.5927428,-2.311429299999999,"Brooksmouth, BL8 2AH Bury, United Kingdom",Fast Food,CERTIFICADOS / CERTIFIED,GF Social Internacional,GF Social Internacional,,,,,"https://www.google.com/maps/search/Domino%27s+Pizza+-+Bury/@53.5927428,-2.311429299999999,17z"
Domino's Pizza - Bury St Edmunds,52.250347500000004,0.7115838999999998,"Tayfen Road 40, IP33 1TB West Suffolk, United Kingdom",Fast Food,CERTIFICADOS / CERTIFIED,GF Social Internacional,GF Social Internacional,,,,,"https://www.google.com/maps/search/Domino%27s+Pizza+-+Bury+St+Edmunds/@52.250347500000004,0.7115838999999998,17z"
Domino's Pizza - Bushey Heath,51.63474889999999,-0.3430891,"High Road 41, WD23 1EE Hertsmere, United Kingdom",Fast Food,CERTIFICADOS / CERTIFIED,GF Social Internacional,GF Social Internacional,,,,,"https://www.google.com/maps/search/Domino%27s+Pizza+-+Bushey+Heath/@51.63474889999999,-0.3430891,17z"
Domino's Pizza - Buxton,53.259947,-1.9141885000000003,"The Quadrant 9, SK17 6AW High Peak, United Kingdom",Fast Food,CERTIFICADOS / CERTIFIED,GF Social Internacional,GF Social Internacional,,,,,"https://www.google.com/maps/search/Domino%27s+Pizza+-+Buxton/@53.259947,-1.9141885000000003,17z"
Domino's Pizza - Caerphilly,51.57892210000001,-3.2185442,"Mill Road, CF83 1PB Caerphilly, United Kingdom",Fast Food,CERTIFICADOS / CERTIFIED,GF Social Internacional,GF Social Internacional,,,,,"https://www.google.com/maps/search/Domino%27s+Pizza+-+Caerphilly/@51.57892210000001,-3.2185442,17z"
Domino's Pizza - Caerphilly - Castle View,51.5709512,-3.2420937,"Nantgarw Road, CF83 1SN Caerphilly, United Kingdom",Fast Food,CERTIFICADOS / CERTIFIED,GF Social Internacional,GF Social Internacional,,,,,"https://www.google.com/maps/search/Domino%27s+Pizza+-+Caerphilly+-+Castle+View/@51.5709512,-3.2420937,17z"
Domino's Pizza - Caldicot,51.5906513,-2.7525389,"Newport Road 11, NP26 4LY Caldicot, United Kingdom",Fast Food,CERTIFICADOS / CERTIFIED,GF Social Internacional,GF Social Internacional,,,,,"https://www.google.com/maps/search/Domino%27s+Pizza+-+Caldicot/@51.5906513,-2.7525389,17z"
Domino's Pizza - Calne,51.4399542,-2.0039669,"The Pippin 87, SN11 8JQ Calne, United Kingdom",Fast Food,CERTIFICADOS / CERTIFIED,GF Social Internacional,GF Social Internacional,,,,,"https://www.google.com/maps/search/Domino%27s+Pizza+-+Calne/@51.4399542,-2.0039669,17z"
Domino's Pizza - Glenrothes,56.1950434,-3.1992688,"Minto Place, KY6 1PD Glenrothes, United Kingdom",Fast Food,CERTIFICADOS / CERTIFIED,GF Social Internacional,GF Social Internacional,,,,,"https://www.google.com/maps/search/Domino%27s+Pizza+-+Glenrothes/@56.1950434,-3.1992688,17z"
